{
"type": "FeatureCollection",
"crs": { "type": "name", "properties": { "name": "urn:ogc:def:crs:OGC:1.3:CRS84" } },
"features": [
{ "type": "Feature", "properties": { "OBJECTID": 1, "OBJECTID_1": 1, "HEB_NAME": "שחר", "ENG_NAME": "SHAHAR", "SETL_CODE": 7, "X_COORD": 174014, "Y_COORD": 614251, "EshkolRashuyot": null }, "geometry": { "type": "Point", "coordinates": [ 34.725503959972372, 31.619721826274553 ] } },
{ "type": "Feature", "properties": { "OBJECTID": 2, "OBJECTID_1": 2, "HEB_NAME": "תירוש", "ENG_NAME": "TIROSH", "SETL_CODE": 10, "X_COORD": 189282, "Y_COORD": 628714, "EshkolRashuyot": null }, "geometry": { "type": "Point", "coordinates": [ 34.88597809991527, 31.750654332080551 ] } },
{ "type": "Feature", "properties": { "OBJECTID": 3, "OBJECTID_1": 3, "HEB_NAME": "ניר ח\"ן", "ENG_NAME": "NIR HEN", "SETL_CODE": 11, "X_COORD": 172978, "Y_COORD": 613039, "EshkolRashuyot": null }, "geometry": { "type": "Point", "coordinates": [ 34.714651646606278, 31.608751414743494 ] } },
{ "type": "Feature", "properties": { "OBJECTID": 4, "OBJECTID_1": 4, "HEB_NAME": "חצבה", "ENG_NAME": "HAZEVA", "SETL_CODE": 13, "X_COORD": 226679, "Y_COORD": 519767, "EshkolRashuyot": 610.0 }, "geometry": { "type": "Point", "coordinates": [ 35.279888484496027, 30.768420973330606 ] } },
{ "type": "Feature", "properties": { "OBJECTID": 5, "OBJECTID_1": 5, "HEB_NAME": "נועם", "ENG_NAME": "NO'AM", "SETL_CODE": 15, "X_COORD": 180004, "Y_COORD": 608494, "EshkolRashuyot": null }, "geometry": { "type": "Point", "coordinates": [ 34.788871352765149, 31.568025088562798 ] } },
{ "type": "Feature", "properties": { "OBJECTID": 6, "OBJECTID_1": 6, "HEB_NAME": "בית ניר", "ENG_NAME": "BET NIR", "SETL_CODE": 16, "X_COORD": 187997, "Y_COORD": 617384, "EshkolRashuyot": 420.0 }, "geometry": { "type": "Point", "coordinates": [ 34.872772708991185, 31.648445905182371 ] } },
{ "type": "Feature", "properties": { "OBJECTID": 7, "OBJECTID_1": 7, "HEB_NAME": "שדה משה", "ENG_NAME": "SEDE MOSHE", "SETL_CODE": 18, "X_COORD": 181217, "Y_COORD": 613291, "EshkolRashuyot": null }, "geometry": { "type": "Point", "coordinates": [ 34.801458631960308, 31.611330561117271 ] } },
{ "type": "Feature", "properties": { "OBJECTID": 8, "OBJECTID_1": 8, "HEB_NAME": "באר אורה", "ENG_NAME": "BE'ER ORA", "SETL_CODE": 21, "X_COORD": 198389, "Y_COORD": 402531, "EshkolRashuyot": 610.0 }, "geometry": { "type": "Point", "coordinates": [ 34.986727357331908, 29.710733421010559 ] } },
{ "type": "Feature", "properties": { "OBJECTID": 9, "OBJECTID_1": 9, "HEB_NAME": "מקווה ישראל", "ENG_NAME": "MIQWE YISRA'EL", "SETL_CODE": 22, "X_COORD": 179483, "Y_COORD": 659631, "EshkolRashuyot": null }, "geometry": { "type": "Point", "coordinates": [ 34.781284734615141, 32.029167834267675 ] } },
{ "type": "Feature", "properties": { "OBJECTID": 10, "OBJECTID_1": 10, "HEB_NAME": "אמציה", "ENG_NAME": "AMAZYA", "SETL_CODE": 23, "X_COORD": 191847, "Y_COORD": 604508, "EshkolRashuyot": null }, "geometry": { "type": "Point", "coordinates": [ 34.913730028694182, 31.532420891221236 ] } },
{ "type": "Feature", "properties": { "OBJECTID": 11, "OBJECTID_1": 11, "HEB_NAME": "לכיש", "ENG_NAME": "LAKHISH", "SETL_CODE": 24, "X_COORD": 185055, "Y_COORD": 607722, "EshkolRashuyot": null }, "geometry": { "type": "Point", "coordinates": [ 34.842103912495148, 31.56122350385337 ] } },
{ "type": "Feature", "properties": { "OBJECTID": 12, "OBJECTID_1": 12, "HEB_NAME": "ראש פינה", "ENG_NAME": "ROSH PINNA", "SETL_CODE": 26, "X_COORD": 251064, "Y_COORD": 763729, "EshkolRashuyot": 211.0 }, "geometry": { "type": "Point", "coordinates": [ 35.54253324739939, 32.968106346737628 ] } },
{ "type": "Feature", "properties": { "OBJECTID": 13, "OBJECTID_1": 13, "HEB_NAME": "שדות מיכה", "ENG_NAME": "SEDOT MIKHA", "SETL_CODE": 27, "X_COORD": 192540, "Y_COORD": 625434, "EshkolRashuyot": null }, "geometry": { "type": "Point", "coordinates": [ 34.920455501139784, 31.721154899310736 ] } },
{ "type": "Feature", "properties": { "OBJECTID": 14, "OBJECTID_1": 14, "HEB_NAME": "מזכרת בתיה", "ENG_NAME": "MAZKERET BATYA", "SETL_CODE": 28, "X_COORD": 185301, "Y_COORD": 639851, "EshkolRashuyot": 420.0 }, "geometry": { "type": "Point", "coordinates": [ 34.843574196273003, 31.85098174012273 ] } },
{ "type": "Feature", "properties": { "OBJECTID": 15, "OBJECTID_1": 15, "HEB_NAME": "יסוד המעלה", "ENG_NAME": "YESUD HAMA'ALA", "SETL_CODE": 29, "X_COORD": 256670, "Y_COORD": 773603, "EshkolRashuyot": 211.0 }, "geometry": { "type": "Point", "coordinates": [ 35.602893631524871, 33.056954370348016 ] } },
{ "type": "Feature", "properties": { "OBJECTID": 16, "OBJECTID_1": 16, "HEB_NAME": "אופקים", "ENG_NAME": "OFAQIM", "SETL_CODE": 31, "X_COORD": 163778, "Y_COORD": 579659, "EshkolRashuyot": 620.0 }, "geometry": { "type": "Point", "coordinates": [ 34.619579695080866, 31.307308137821039 ] } },
{ "type": "Feature", "properties": { "OBJECTID": 17, "OBJECTID_1": 17, "HEB_NAME": "עוצם", "ENG_NAME": "OZEM", "SETL_CODE": 32, "X_COORD": 171963, "Y_COORD": 616156, "EshkolRashuyot": null }, "geometry": { "type": "Point", "coordinates": [ 34.703799647310504, 31.636816003873378 ] } },
{ "type": "Feature", "properties": { "OBJECTID": 18, "OBJECTID_1": 18, "HEB_NAME": "בת שלמה", "ENG_NAME": "BAT SHELOMO", "SETL_CODE": 33, "X_COORD": 200598, "Y_COORD": 722920, "EshkolRashuyot": null }, "geometry": { "type": "Point", "coordinates": [ 35.003545029973949, 32.600431757689691 ] } },
{ "type": "Feature", "properties": { "OBJECTID": 19, "OBJECTID_1": 19, "HEB_NAME": "גדות", "ENG_NAME": "GADOT", "SETL_CODE": 35, "X_COORD": 258253, "Y_COORD": 769413, "EshkolRashuyot": 211.0 }, "geometry": { "type": "Point", "coordinates": [ 35.619671148200162, 33.019123326689972 ] } },
{ "type": "Feature", "properties": { "OBJECTID": 20, "OBJECTID_1": 20, "HEB_NAME": "שדה דוד", "ENG_NAME": "SEDE DAWID", "SETL_CODE": 36, "X_COORD": 170055, "Y_COORD": 609442, "EshkolRashuyot": null }, "geometry": { "type": "Point", "coordinates": [ 34.684024783493385, 31.576194536410593 ] } },
{ "type": "Feature", "properties": { "OBJECTID": 21, "OBJECTID_1": 21, "HEB_NAME": "איתן", "ENG_NAME": "ETAN", "SETL_CODE": 37, "X_COORD": 176145, "Y_COORD": 608986, "EshkolRashuyot": null }, "geometry": { "type": "Point", "coordinates": [ 34.748197506406783, 31.572319721540818 ] } },
{ "type": "Feature", "properties": { "OBJECTID": 22, "OBJECTID_1": 22, "HEB_NAME": "גפן", "ENG_NAME": "GEFEN", "SETL_CODE": 39, "X_COORD": 188573, "Y_COORD": 627617, "EshkolRashuyot": null }, "geometry": { "type": "Point", "coordinates": [ 34.878531877590902, 31.740745152666413 ] } },
{ "type": "Feature", "properties": { "OBJECTID": 23, "OBJECTID_1": 23, "HEB_NAME": "אליכין", "ENG_NAME": "ELYAKHIN", "SETL_CODE": 41, "X_COORD": 193183, "Y_COORD": 701564, "EshkolRashuyot": null }, "geometry": { "type": "Point", "coordinates": [ 34.925155328468612, 32.407702567156981 ] } },
{ "type": "Feature", "properties": { "OBJECTID": 24, "OBJECTID_1": 24, "HEB_NAME": "מטולה", "ENG_NAME": "METULA", "SETL_CODE": 43, "X_COORD": 254170, "Y_COORD": 798178, "EshkolRashuyot": 211.0 }, "geometry": { "type": "Point", "coordinates": [ 35.577071230173864, 33.278615344158645 ] } },
{ "type": "Feature", "properties": { "OBJECTID": 25, "OBJECTID_1": 25, "HEB_NAME": "זוהר", "ENG_NAME": "ZOHAR", "SETL_CODE": 44, "X_COORD": 170881, "Y_COORD": 611568, "EshkolRashuyot": null }, "geometry": { "type": "Point", "coordinates": [ 34.692626286733528, 31.595396605771633 ] } },
{ "type": "Feature", "properties": { "OBJECTID": 26, "OBJECTID_1": 26, "HEB_NAME": "יבנאל", "ENG_NAME": "YAVNE'EL", "SETL_CODE": 46, "X_COORD": 247506, "Y_COORD": 734967, "EshkolRashuyot": 214.0 }, "geometry": { "type": "Point", "coordinates": [ 35.503610346594392, 32.70886439803764 ] } },
{ "type": "Feature", "properties": { "OBJECTID": 27, "OBJECTID_1": 27, "HEB_NAME": "כפר תבור", "ENG_NAME": "KEFAR TAVOR", "SETL_CODE": 47, "X_COORD": 239714, "Y_COORD": 732528, "EshkolRashuyot": 214.0 }, "geometry": { "type": "Point", "coordinates": [ 35.420446770202815, 32.68704563576383 ] } },
{ "type": "Feature", "properties": { "OBJECTID": 28, "OBJECTID_1": 28, "HEB_NAME": "מנחמיה", "ENG_NAME": "MENAHEMYA", "SETL_CODE": 48, "X_COORD": 252341, "Y_COORD": 730234, "EshkolRashuyot": 214.0 }, "geometry": { "type": "Point", "coordinates": [ 35.554999889753958, 32.66605356439247 ] } },
{ "type": "Feature", "properties": { "OBJECTID": 29, "OBJECTID_1": 29, "HEB_NAME": "אילנייה", "ENG_NAME": "ILANIYYA", "SETL_CODE": 49, "X_COORD": 238470, "Y_COORD": 739984, "EshkolRashuyot": 214.0 }, "geometry": { "type": "Point", "coordinates": [ 35.407339148480879, 32.75429518105399 ] } },
{ "type": "Feature", "properties": { "OBJECTID": 30, "OBJECTID_1": 30, "HEB_NAME": "לוזית", "ENG_NAME": "LUZIT", "SETL_CODE": 52, "X_COORD": 189314, "Y_COORD": 621648, "EshkolRashuyot": null }, "geometry": { "type": "Point", "coordinates": [ 34.88652653309628, 31.686934611277344 ] } },
{ "type": "Feature", "properties": { "OBJECTID": 31, "OBJECTID_1": 31, "HEB_NAME": "עתלית", "ENG_NAME": "ATLIT", "SETL_CODE": 53, "X_COORD": 194965, "Y_COORD": 733081, "EshkolRashuyot": null }, "geometry": { "type": "Point", "coordinates": [ 34.943282387201954, 32.691941598230891 ] } },
{ "type": "Feature", "properties": { "OBJECTID": 32, "OBJECTID_1": 32, "HEB_NAME": "נוגה", "ENG_NAME": "NOGAH", "SETL_CODE": 55, "X_COORD": 171098, "Y_COORD": 614785, "EshkolRashuyot": null }, "geometry": { "type": "Point", "coordinates": [ 34.694747551182417, 31.624420765733127 ] } },
{ "type": "Feature", "properties": { "OBJECTID": 33, "OBJECTID_1": 33, "HEB_NAME": "כנרת (קבוצה)", "ENG_NAME": "KINNERET(QEVUZA)", "SETL_CODE": 57, "X_COORD": 252942, "Y_COORD": 735504, "EshkolRashuyot": 214.0 }, "geometry": { "type": "Point", "coordinates": [ 35.561604169630762, 32.71355217183676 ] } },
{ "type": "Feature", "properties": { "OBJECTID": 34, "OBJECTID_1": 34, "HEB_NAME": "מצפה", "ENG_NAME": "MIZPA", "SETL_CODE": 58, "X_COORD": 248046, "Y_COORD": 743975, "EshkolRashuyot": 214.0 }, "geometry": { "type": "Point", "coordinates": [ 35.509642710129356, 32.790077232620163 ] } },
{ "type": "Feature", "properties": { "OBJECTID": 35, "OBJECTID_1": 35, "HEB_NAME": "נחושה", "ENG_NAME": "NEHUSHA", "SETL_CODE": 59, "X_COORD": 195537, "Y_COORD": 615030, "EshkolRashuyot": null }, "geometry": { "type": "Point", "coordinates": [ 34.952328478620963, 31.627399631429235 ] } },
{ "type": "Feature", "properties": { "OBJECTID": 36, "OBJECTID_1": 36, "HEB_NAME": "דגניה א'", "ENG_NAME": "DEGANYA ALEF", "SETL_CODE": 62, "X_COORD": 254180, "Y_COORD": 734892, "EshkolRashuyot": 214.0 }, "geometry": { "type": "Point", "coordinates": [ 35.574779511339649, 32.70799495604922 ] } },
{ "type": "Feature", "properties": { "OBJECTID": 37, "OBJECTID_1": 37, "HEB_NAME": "כנרת (מושבה)", "ENG_NAME": "KINNERET(MOSHAVA)", "SETL_CODE": 63, "X_COORD": 253215, "Y_COORD": 736724, "EshkolRashuyot": 214.0 }, "geometry": { "type": "Point", "coordinates": [ 35.564554463078956, 32.724543141321732 ] } },
{ "type": "Feature", "properties": { "OBJECTID": 38, "OBJECTID_1": 38, "HEB_NAME": "יד רמב\"ם", "ENG_NAME": "YAD RAMBAM", "SETL_CODE": 64, "X_COORD": 190720, "Y_COORD": 645284, "EshkolRashuyot": null }, "geometry": { "type": "Point", "coordinates": [ 34.900667081525071, 31.900129203473654 ] } },
{ "type": "Feature", "properties": { "OBJECTID": 39, "OBJECTID_1": 39, "HEB_NAME": "מגדל", "ENG_NAME": "MIGDAL", "SETL_CODE": 65, "X_COORD": 247441, "Y_COORD": 749356, "EshkolRashuyot": 214.0 }, "geometry": { "type": "Point", "coordinates": [ 35.503346802172977, 32.838605385832111 ] } },
{ "type": "Feature", "properties": { "OBJECTID": 40, "OBJECTID_1": 40, "HEB_NAME": "מרחביה (קיבוץ)", "ENG_NAME": "MERHAVYA(QIBBUZ)", "SETL_CODE": 66, "X_COORD": 229101, "Y_COORD": 723554, "EshkolRashuyot": 213.0 }, "geometry": { "type": "Point", "coordinates": [ 35.307194256259869, 32.606267580255071 ] } },
{ "type": "Feature", "properties": { "OBJECTID": 41, "OBJECTID_1": 41, "HEB_NAME": "אור הנר", "ENG_NAME": "OR HANER", "SETL_CODE": 67, "X_COORD": 162056, "Y_COORD": 607367, "EshkolRashuyot": 620.0 }, "geometry": { "type": "Point", "coordinates": [ 34.599880974627105, 31.55710506265542 ] } },
{ "type": "Feature", "properties": { "OBJECTID": 42, "OBJECTID_1": 42, "HEB_NAME": "ניר עוז", "ENG_NAME": "NIR OZ", "SETL_CODE": 69, "X_COORD": 143044, "Y_COORD": 580175, "EshkolRashuyot": 620.0 }, "geometry": { "type": "Point", "coordinates": [ 34.401759034937513, 31.310783735810723 ] } },
{ "type": "Feature", "properties": { "OBJECTID": 43, "OBJECTID_1": 43, "HEB_NAME": "אשדוד", "ENG_NAME": "ASHDOD", "SETL_CODE": 70, "X_COORD": 166897, "Y_COORD": 633772, "EshkolRashuyot": null }, "geometry": { "type": "Point", "coordinates": [ 34.649458260174562, 31.795459153397925 ] } },
{ "type": "Feature", "properties": { "OBJECTID": 44, "OBJECTID_1": 44, "HEB_NAME": "אשבול", "ENG_NAME": "ESHBOL", "SETL_CODE": 71, "X_COORD": 168275, "Y_COORD": 595185, "EshkolRashuyot": 620.0 }, "geometry": { "type": "Point", "coordinates": [ 34.666011633389246, 31.447538757049912 ] } },
{ "type": "Feature", "properties": { "OBJECTID": 45, "OBJECTID_1": 45, "HEB_NAME": "גן שמואל", "ENG_NAME": "GAN SHEMU'EL", "SETL_CODE": 72, "X_COORD": 195584, "Y_COORD": 706490, "EshkolRashuyot": null }, "geometry": { "type": "Point", "coordinates": [ 34.950554079565542, 32.452178163928906 ] } },
{ "type": "Feature", "properties": { "OBJECTID": 46, "OBJECTID_1": 46, "HEB_NAME": "עין הוד", "ENG_NAME": "EN HOD", "SETL_CODE": 74, "X_COORD": 198700, "Y_COORD": 733943, "EshkolRashuyot": null }, "geometry": { "type": "Point", "coordinates": [ 34.983085404327525, 32.69979233112845 ] } },
{ "type": "Feature", "properties": { "OBJECTID": 47, "OBJECTID_1": 47, "HEB_NAME": "כפר גלעדי", "ENG_NAME": "KEFAR GIL'ADI", "SETL_CODE": 76, "X_COORD": 253940, "Y_COORD": 794189, "EshkolRashuyot": 211.0 }, "geometry": { "type": "Point", "coordinates": [ 35.574441853681535, 33.242661292372347 ] } },
{ "type": "Feature", "properties": { "OBJECTID": 48, "OBJECTID_1": 48, "HEB_NAME": "איילת השחר", "ENG_NAME": "AYYELET HASHAHAR", "SETL_CODE": 77, "X_COORD": 254188, "Y_COORD": 769903, "EshkolRashuyot": 211.0 }, "geometry": { "type": "Point", "coordinates": [ 35.576181998339663, 33.023676818443981 ] } },
{ "type": "Feature", "properties": { "OBJECTID": 49, "OBJECTID_1": 49, "HEB_NAME": "קריית ענבים", "ENG_NAME": "QIRYAT ANAVIM", "SETL_CODE": 78, "X_COORD": 211410, "Y_COORD": 635314, "EshkolRashuyot": null }, "geometry": { "type": "Point", "coordinates": [ 35.119467072450043, 31.810548191612725 ] } },
{ "type": "Feature", "properties": { "OBJECTID": 50, "OBJECTID_1": 50, "HEB_NAME": "דגניה ב'", "ENG_NAME": "DEGANYA BET", "SETL_CODE": 79, "X_COORD": 254213, "Y_COORD": 734039, "EshkolRashuyot": 214.0 }, "geometry": { "type": "Point", "coordinates": [ 35.575099009362937, 32.700306322900431 ] } },
{ "type": "Feature", "properties": { "OBJECTID": 51, "OBJECTID_1": 51, "HEB_NAME": "נהלל", "ENG_NAME": "NAHALAL", "SETL_CODE": 80, "X_COORD": 218730, "Y_COORD": 732881, "EshkolRashuyot": 213.0 }, "geometry": { "type": "Point", "coordinates": [ 35.196693412863162, 32.690407855561659 ] } },
{ "type": "Feature", "properties": { "OBJECTID": 52, "OBJECTID_1": 52, "HEB_NAME": "עין חרוד (מאוחד)", "ENG_NAME": "EN HAROD(ME'UHAD)", "SETL_CODE": 82, "X_COORD": 237029, "Y_COORD": 718253, "EshkolRashuyot": 213.0 }, "geometry": { "type": "Point", "coordinates": [ 35.391544116560659, 32.558364918046387 ] } },
{ "type": "Feature", "properties": { "OBJECTID": 53, "OBJECTID_1": 53, "HEB_NAME": "תל יוסף", "ENG_NAME": "TEL YOSEF", "SETL_CODE": 84, "X_COORD": 237784, "Y_COORD": 718018, "EshkolRashuyot": 213.0 }, "geometry": { "type": "Point", "coordinates": [ 35.399588899770521, 32.556235132886364 ] } },
{ "type": "Feature", "properties": { "OBJECTID": 54, "OBJECTID_1": 54, "HEB_NAME": "כפר יחזקאל", "ENG_NAME": "KEFAR YEHEZQEL", "SETL_CODE": 85, "X_COORD": 234036, "Y_COORD": 719221, "EshkolRashuyot": 213.0 }, "geometry": { "type": "Point", "coordinates": [ 35.3596967147962, 32.567137897944136 ] } },
{ "type": "Feature", "properties": { "OBJECTID": 55, "OBJECTID_1": 55, "HEB_NAME": "גבע", "ENG_NAME": "GEVA", "SETL_CODE": 86, "X_COORD": 235199, "Y_COORD": 719128, "EshkolRashuyot": 213.0 }, "geometry": { "type": "Point", "coordinates": [ 35.372073540822427, 32.566288353190515 ] } },
{ "type": "Feature", "properties": { "OBJECTID": 56, "OBJECTID_1": 56, "HEB_NAME": "כרם בן שמן", "ENG_NAME": "KEREM BEN SHEMEN", "SETL_CODE": 88, "X_COORD": 193800, "Y_COORD": 651733, "EshkolRashuyot": null }, "geometry": { "type": "Point", "coordinates": [ 34.933050031092947, 31.958358173696006 ] } },
{ "type": "Feature", "properties": { "OBJECTID": 57, "OBJECTID_1": 57, "HEB_NAME": "עין חרוד (איחוד)", "ENG_NAME": "EN HAROD (IHUD)", "SETL_CODE": 89, "X_COORD": 236990, "Y_COORD": 718837, "EshkolRashuyot": 213.0 }, "geometry": { "type": "Point", "coordinates": [ 35.391148961141461, 32.563631645730482 ] } },
{ "type": "Feature", "properties": { "OBJECTID": 58, "OBJECTID_1": 58, "HEB_NAME": "חפצי-בה", "ENG_NAME": "HEFZI-BAH", "SETL_CODE": 90, "X_COORD": 240084, "Y_COORD": 713898, "EshkolRashuyot": 213.0 }, "geometry": { "type": "Point", "coordinates": [ 35.423977425534872, 32.519049307264204 ] } },
{ "type": "Feature", "properties": { "OBJECTID": 59, "OBJECTID_1": 59, "HEB_NAME": "גיניגר", "ENG_NAME": "GINNEGAR", "SETL_CODE": 92, "X_COORD": 224404, "Y_COORD": 729948, "EshkolRashuyot": 213.0 }, "geometry": { "type": "Point", "coordinates": [ 35.257187697154855, 32.663951962725875 ] } },
{ "type": "Feature", "properties": { "OBJECTID": 60, "OBJECTID_1": 60, "HEB_NAME": "בלפוריה", "ENG_NAME": "BALFURYA", "SETL_CODE": 94, "X_COORD": 228096, "Y_COORD": 726204, "EshkolRashuyot": 213.0 }, "geometry": { "type": "Point", "coordinates": [ 35.29650660786406, 32.630170949731507 ] } },
{ "type": "Feature", "properties": { "OBJECTID": 61, "OBJECTID_1": 61, "HEB_NAME": "בית אלפא", "ENG_NAME": "BET ALFA", "SETL_CODE": 95, "X_COORD": 240788, "Y_COORD": 713663, "EshkolRashuyot": 213.0 }, "geometry": { "type": "Point", "coordinates": [ 35.431470582574647, 32.516910665492837 ] } },
{ "type": "Feature", "properties": { "OBJECTID": 62, "OBJECTID_1": 62, "HEB_NAME": "יגור", "ENG_NAME": "YAGUR", "SETL_CODE": 96, "X_COORD": 207532, "Y_COORD": 738595, "EshkolRashuyot": 310.0 }, "geometry": { "type": "Point", "coordinates": [ 35.077216816554845, 32.741866918058079 ] } },
{ "type": "Feature", "properties": { "OBJECTID": 63, "OBJECTID_1": 63, "HEB_NAME": "מרחביה (מושב)", "ENG_NAME": "MERHAVYA(MOSHAV)", "SETL_CODE": 97, "X_COORD": 229981, "Y_COORD": 723279, "EshkolRashuyot": 213.0 }, "geometry": { "type": "Point", "coordinates": [ 35.316565755492476, 32.603773668245893 ] } },
{ "type": "Feature", "properties": { "OBJECTID": 64, "OBJECTID_1": 64, "HEB_NAME": "כפר מל\"ל", "ENG_NAME": "KEFAR MALAL", "SETL_CODE": 98, "X_COORD": 190175, "Y_COORD": 674999, "EshkolRashuyot": 410.0 }, "geometry": { "type": "Point", "coordinates": [ 34.893999723952525, 32.168080037681854 ] } },
{ "type": "Feature", "properties": { "OBJECTID": 65, "OBJECTID_1": 65, "HEB_NAME": "מצפה רמון", "ENG_NAME": "MIZPE RAMON", "SETL_CODE": 99, "X_COORD": 180828, "Y_COORD": 503766, "EshkolRashuyot": 610.0 }, "geometry": { "type": "Point", "coordinates": [ 34.801556490323691, 30.623497961912094 ] } },
{ "type": "Feature", "properties": { "OBJECTID": 66, "OBJECTID_1": 66, "HEB_NAME": "מאיר שפיה", "ENG_NAME": "ME'IR SHEFEYA", "SETL_CODE": 102, "X_COORD": 197569, "Y_COORD": 721906, "EshkolRashuyot": null }, "geometry": { "type": "Point", "coordinates": [ 34.971306786792653, 32.591231172724505 ] } },
{ "type": "Feature", "properties": { "OBJECTID": 67, "OBJECTID_1": 67, "HEB_NAME": "תל עדשים", "ENG_NAME": "TEL ADASHIM", "SETL_CODE": 103, "X_COORD": 228668, "Y_COORD": 729093, "EshkolRashuyot": 213.0 }, "geometry": { "type": "Point", "coordinates": [ 35.302627005004588, 32.65621848935627 ] } },
{ "type": "Feature", "properties": { "OBJECTID": 68, "OBJECTID_1": 68, "HEB_NAME": "מזרע", "ENG_NAME": "MIZRA", "SETL_CODE": 104, "X_COORD": 227145, "Y_COORD": 728505, "EshkolRashuyot": 213.0 }, "geometry": { "type": "Point", "coordinates": [ 35.286388726240695, 32.650921973439011 ] } },
{ "type": "Feature", "properties": { "OBJECTID": 69, "OBJECTID_1": 69, "HEB_NAME": "כפר גדעון", "ENG_NAME": "KEFAR GID'ON", "SETL_CODE": 106, "X_COORD": 227606, "Y_COORD": 727744, "EshkolRashuyot": 213.0 }, "geometry": { "type": "Point", "coordinates": [ 35.291296578413615, 32.644063515017244 ] } },
{ "type": "Feature", "properties": { "OBJECTID": 70, "OBJECTID_1": 70, "HEB_NAME": "כפר סילבר", "ENG_NAME": "KEFAR SILVER", "SETL_CODE": 107, "X_COORD": 163253, "Y_COORD": 620228, "EshkolRashuyot": 620.0 }, "geometry": { "type": "Point", "coordinates": [ 34.61175351359045, 31.673144831756726 ] } },
{ "type": "Feature", "properties": { "OBJECTID": 71, "OBJECTID_1": 71, "HEB_NAME": "כפר חסידים א'", "ENG_NAME": "KEFAR HASIDIM ALEF", "SETL_CODE": 112, "X_COORD": 208989, "Y_COORD": 739552, "EshkolRashuyot": 310.0 }, "geometry": { "type": "Point", "coordinates": [ 35.092751103889832, 32.750511323734251 ] } },
{ "type": "Feature", "properties": { "OBJECTID": 72, "OBJECTID_1": 72, "HEB_NAME": "אדירים", "ENG_NAME": "ADDIRIM", "SETL_CODE": 113, "X_COORD": 225799, "Y_COORD": 717202, "EshkolRashuyot": 213.0 }, "geometry": { "type": "Point", "coordinates": [ 35.271967098984966, 32.549014437380933 ] } },
{ "type": "Feature", "properties": { "OBJECTID": 73, "OBJECTID_1": 73, "HEB_NAME": "חופית", "ENG_NAME": "HOFIT", "SETL_CODE": 115, "X_COORD": 188374, "Y_COORD": 699058, "EshkolRashuyot": null }, "geometry": { "type": "Point", "coordinates": [ 34.874120165330922, 32.384988293938115 ] } },
{ "type": "Feature", "properties": { "OBJECTID": 74, "OBJECTID_1": 74, "HEB_NAME": "רמת ישי", "ENG_NAME": "RAMAT YISHAY", "SETL_CODE": 122, "X_COORD": 215813, "Y_COORD": 734260, "EshkolRashuyot": null }, "geometry": { "type": "Point", "coordinates": [ 35.165587979892862, 32.702842192365097 ] } },
{ "type": "Feature", "properties": { "OBJECTID": 75, "OBJECTID_1": 75, "HEB_NAME": "שריד", "ENG_NAME": "SARID", "SETL_CODE": 126, "X_COORD": 221468, "Y_COORD": 729850, "EshkolRashuyot": 213.0 }, "geometry": { "type": "Point", "coordinates": [ 35.225886378056401, 32.663078096251795 ] } },
{ "type": "Feature", "properties": { "OBJECTID": 76, "OBJECTID_1": 76, "HEB_NAME": "רמת רחל", "ENG_NAME": "RAMAT RAHEL", "SETL_CODE": 127, "X_COORD": 220791, "Y_COORD": 627422, "EshkolRashuyot": null }, "geometry": { "type": "Point", "coordinates": [ 35.218523257805884, 31.739401048203234 ] } },
{ "type": "Feature", "properties": { "OBJECTID": 77, "OBJECTID_1": 77, "HEB_NAME": "גת רימון", "ENG_NAME": "GAT RIMMON", "SETL_CODE": 128, "X_COORD": 188844, "Y_COORD": 663953, "EshkolRashuyot": 410.0 }, "geometry": { "type": "Point", "coordinates": [ 34.880241616434716, 32.068430426189821 ] } },
{ "type": "Feature", "properties": { "OBJECTID": 78, "OBJECTID_1": 78, "HEB_NAME": "משמר העמק", "ENG_NAME": "MISHMAR HAEMEQ", "SETL_CODE": 130, "X_COORD": 213632, "Y_COORD": 723991, "EshkolRashuyot": 213.0 }, "geometry": { "type": "Point", "coordinates": [ 35.142384766811062, 32.610237034344756 ] } },
{ "type": "Feature", "properties": { "OBJECTID": 79, "OBJECTID_1": 79, "HEB_NAME": "כפר ברוך", "ENG_NAME": "KEFAR BARUKH", "SETL_CODE": 132, "X_COORD": 218196, "Y_COORD": 727969, "EshkolRashuyot": 213.0 }, "geometry": { "type": "Point", "coordinates": [ 35.191004742227157, 32.646113682746964 ] } },
{ "type": "Feature", "properties": { "OBJECTID": 80, "OBJECTID_1": 80, "HEB_NAME": "גבת", "ENG_NAME": "GEVAT", "SETL_CODE": 133, "X_COORD": 220210, "Y_COORD": 731149, "EshkolRashuyot": 213.0 }, "geometry": { "type": "Point", "coordinates": [ 35.212479585929472, 32.674796434183648 ] } },
{ "type": "Feature", "properties": { "OBJECTID": 81, "OBJECTID_1": 81, "HEB_NAME": "יפעת", "ENG_NAME": "YIF'AT", "SETL_CODE": 134, "X_COORD": 221374, "Y_COORD": 731371, "EshkolRashuyot": 213.0 }, "geometry": { "type": "Point", "coordinates": [ 35.224889740098497, 32.676796032136536 ] } },
{ "type": "Feature", "properties": { "OBJECTID": 82, "OBJECTID_1": 82, "HEB_NAME": "רמת דוד", "ENG_NAME": "RAMAT DAWID", "SETL_CODE": 135, "X_COORD": 219207, "Y_COORD": 731530, "EshkolRashuyot": 213.0 }, "geometry": { "type": "Point", "coordinates": [ 35.201786165071027, 32.678231139659708 ] } },
{ "type": "Feature", "properties": { "OBJECTID": 83, "OBJECTID_1": 83, "HEB_NAME": "עין שמר", "ENG_NAME": "EN SHEMER", "SETL_CODE": 139, "X_COORD": 200906, "Y_COORD": 707756, "EshkolRashuyot": null }, "geometry": { "type": "Point", "coordinates": [ 35.007126522042057, 32.463697567428113 ] } },
{ "type": "Feature", "properties": { "OBJECTID": 84, "OBJECTID_1": 84, "HEB_NAME": "כפר יהושע", "ENG_NAME": "KEFAR YEHOSHUA", "SETL_CODE": 140, "X_COORD": 214569, "Y_COORD": 732004, "EshkolRashuyot": 213.0 }, "geometry": { "type": "Point", "coordinates": [ 35.152335000034704, 32.682494066396011 ] } },
{ "type": "Feature", "properties": { "OBJECTID": 85, "OBJECTID_1": 85, "HEB_NAME": "ברק", "ENG_NAME": "BARAQ", "SETL_CODE": 141, "X_COORD": 225131, "Y_COORD": 716513, "EshkolRashuyot": 213.0 }, "geometry": { "type": "Point", "coordinates": [ 35.264857829737409, 32.542799027400491 ] } },
{ "type": "Feature", "properties": { "OBJECTID": 86, "OBJECTID_1": 86, "HEB_NAME": "שדה יעקב", "ENG_NAME": "SEDE YA'AQOV", "SETL_CODE": 142, "X_COORD": 213542, "Y_COORD": 733750, "EshkolRashuyot": 213.0 }, "geometry": { "type": "Point", "coordinates": [ 35.141374246668548, 32.698233969115208 ] } },
{ "type": "Feature", "properties": { "OBJECTID": 87, "OBJECTID_1": 87, "HEB_NAME": "בית זרע", "ENG_NAME": "BET ZERA", "SETL_CODE": 143, "X_COORD": 254059, "Y_COORD": 732775, "EshkolRashuyot": 214.0 }, "geometry": { "type": "Point", "coordinates": [ 35.573413119657808, 32.688909847504242 ] } },
{ "type": "Feature", "properties": { "OBJECTID": 88, "OBJECTID_1": 88, "HEB_NAME": "גן שלמה", "ENG_NAME": "GAN SHELOMO", "SETL_CODE": 144, "X_COORD": 181071, "Y_COORD": 642877, "EshkolRashuyot": 420.0 }, "geometry": { "type": "Point", "coordinates": [ 34.798755769362117, 31.87813656899878 ] } },
{ "type": "Feature", "properties": { "OBJECTID": 89, "OBJECTID_1": 89, "HEB_NAME": "גדיש", "ENG_NAME": "GADISH", "SETL_CODE": 145, "X_COORD": 223249, "Y_COORD": 718297, "EshkolRashuyot": 213.0 }, "geometry": { "type": "Point", "coordinates": [ 35.244829358125919, 32.558898838095331 ] } },
{ "type": "Feature", "properties": { "OBJECTID": 90, "OBJECTID_1": 90, "HEB_NAME": "דבורה", "ENG_NAME": "DEVORA", "SETL_CODE": 146, "X_COORD": 225051, "Y_COORD": 717622, "EshkolRashuyot": 213.0 }, "geometry": { "type": "Point", "coordinates": [ 35.264008383295142, 32.552799999158296 ] } },
{ "type": "Feature", "properties": { "OBJECTID": 91, "OBJECTID_1": 91, "HEB_NAME": "גבעת ברנר", "ENG_NAME": "GIV'AT BRENNER", "SETL_CODE": 147, "X_COORD": 181271, "Y_COORD": 641675, "EshkolRashuyot": 420.0 }, "geometry": { "type": "Point", "coordinates": [ 34.800917719589329, 31.867302990541539 ] } },
{ "type": "Feature", "properties": { "OBJECTID": 92, "OBJECTID_1": 92, "HEB_NAME": "תל מונד", "ENG_NAME": "TEL MOND", "SETL_CODE": 154, "X_COORD": 192404, "Y_COORD": 684386, "EshkolRashuyot": 410.0 }, "geometry": { "type": "Point", "coordinates": [ 34.917365986381903, 32.252784576703178 ] } },
{ "type": "Feature", "properties": { "OBJECTID": 93, "OBJECTID_1": 93, "HEB_NAME": "באר טוביה", "ENG_NAME": "BE'ER TOVIYYA", "SETL_CODE": 155, "X_COORD": 173903, "Y_COORD": 626988, "EshkolRashuyot": 420.0 }, "geometry": { "type": "Point", "coordinates": [ 34.723750635153984, 31.734583925259134 ] } },
{ "type": "Feature", "properties": { "OBJECTID": 94, "OBJECTID_1": 94, "HEB_NAME": "עיינות", "ENG_NAME": "AYANOT", "SETL_CODE": 156, "X_COORD": 178163, "Y_COORD": 647040, "EshkolRashuyot": null }, "geometry": { "type": "Point", "coordinates": [ 34.767853953895447, 31.915572665137809 ] } },
{ "type": "Feature", "properties": { "OBJECTID": 95, "OBJECTID_1": 95, "HEB_NAME": "עין ורד", "ENG_NAME": "EN WERED", "SETL_CODE": 157, "X_COORD": 193759, "Y_COORD": 685674, "EshkolRashuyot": 410.0 }, "geometry": { "type": "Point", "coordinates": [ 34.931711265372734, 32.264429523000459 ] } },
{ "type": "Feature", "properties": { "OBJECTID": 96, "OBJECTID_1": 96, "HEB_NAME": "נען", "ENG_NAME": "NA'AN", "SETL_CODE": 158, "X_COORD": 186654, "Y_COORD": 643499, "EshkolRashuyot": null }, "geometry": { "type": "Point", "coordinates": [ 34.857744780531469, 31.883921153356287 ] } },
{ "type": "Feature", "properties": { "OBJECTID": 97, "OBJECTID_1": 97, "HEB_NAME": "בית חנן", "ENG_NAME": "BET HANAN", "SETL_CODE": 159, "X_COORD": 178693, "Y_COORD": 649040, "EshkolRashuyot": null }, "geometry": { "type": "Point", "coordinates": [ 34.773369007548077, 31.93363357732283 ] } },
{ "type": "Feature", "properties": { "OBJECTID": 98, "OBJECTID_1": 98, "HEB_NAME": "חולדה", "ENG_NAME": "HULDA", "SETL_CODE": 160, "X_COORD": 188984, "Y_COORD": 637667, "EshkolRashuyot": null }, "geometry": { "type": "Point", "coordinates": [ 34.882549586410178, 31.831391402494152 ] } },
{ "type": "Feature", "properties": { "OBJECTID": 99, "OBJECTID_1": 99, "HEB_NAME": "חירות", "ENG_NAME": "HERUT", "SETL_CODE": 162, "X_COORD": 192150, "Y_COORD": 683002, "EshkolRashuyot": 410.0 }, "geometry": { "type": "Point", "coordinates": [ 34.914709237299107, 32.240297941121661 ] } },
{ "type": "Feature", "properties": { "OBJECTID": 100, "OBJECTID_1": 100, "HEB_NAME": "תימורים", "ENG_NAME": "TIMMORIM", "SETL_CODE": 163, "X_COORD": 177198, "Y_COORD": 624857, "EshkolRashuyot": 420.0 }, "geometry": { "type": "Point", "coordinates": [ 34.758613784819431, 31.715493537759173 ] } },
{ "type": "Feature", "properties": { "OBJECTID": 101, "OBJECTID_1": 101, "HEB_NAME": "מלאה", "ENG_NAME": "MELE'A", "SETL_CODE": 164, "X_COORD": 222563, "Y_COORD": 718810, "EshkolRashuyot": 213.0 }, "geometry": { "type": "Point", "coordinates": [ 35.237521333069154, 32.563525025250641 ] } },
{ "type": "Feature", "properties": { "OBJECTID": 102, "OBJECTID_1": 102, "HEB_NAME": "ניר יפה", "ENG_NAME": "NIR YAFE", "SETL_CODE": 165, "X_COORD": 223283, "Y_COORD": 719429, "EshkolRashuyot": 213.0 }, "geometry": { "type": "Point", "coordinates": [ 35.24519463116706, 32.569105277934888 ] } },
{ "type": "Feature", "properties": { "OBJECTID": 103, "OBJECTID_1": 103, "HEB_NAME": "גן יבנה", "ENG_NAME": "GAN YAVNE", "SETL_CODE": 166, "X_COORD": 172487, "Y_COORD": 632972, "EshkolRashuyot": null }, "geometry": { "type": "Point", "coordinates": [ 34.708519721066814, 31.788491160096434 ] } },
{ "type": "Feature", "properties": { "OBJECTID": 104, "OBJECTID_1": 104, "HEB_NAME": "עין החורש", "ENG_NAME": "EN HAHORESH", "SETL_CODE": 167, "X_COORD": 194542, "Y_COORD": 699149, "EshkolRashuyot": null }, "geometry": { "type": "Point", "coordinates": [ 34.939667377356379, 32.385959660831922 ] } },
{ "type": "Feature", "properties": { "OBJECTID": 105, "OBJECTID_1": 105, "HEB_NAME": "כפר יונה", "ENG_NAME": "KEFAR YONA", "SETL_CODE": 168, "X_COORD": 193882, "Y_COORD": 691327, "EshkolRashuyot": null }, "geometry": { "type": "Point", "coordinates": [ 34.932867185054249, 32.31541368787164 ] } },
{ "type": "Feature", "properties": { "OBJECTID": 106, "OBJECTID_1": 106, "HEB_NAME": "כפר יעבץ", "ENG_NAME": "KEFAR YA'BEZ", "SETL_CODE": 170, "X_COORD": 196945, "Y_COORD": 686790, "EshkolRashuyot": 410.0 }, "geometry": { "type": "Point", "coordinates": [ 34.965498924843004, 32.274562103656841 ] } },
{ "type": "Feature", "properties": { "OBJECTID": 107, "OBJECTID_1": 107, "HEB_NAME": "פרדסייה", "ENG_NAME": "PARDESIYYA", "SETL_CODE": 171, "X_COORD": 191774, "Y_COORD": 690283, "EshkolRashuyot": null }, "geometry": { "type": "Point", "coordinates": [ 34.91050882096048, 32.305947559805894 ] } },
{ "type": "Feature", "properties": { "OBJECTID": 108, "OBJECTID_1": 108, "HEB_NAME": "גבעת חיים (מאוחד)", "ENG_NAME": "GIV'AT HAYYIM(ME'UHAD)", "SETL_CODE": 173, "X_COORD": 193706, "Y_COORD": 699759, "EshkolRashuyot": null }, "geometry": { "type": "Point", "coordinates": [ 34.930770893525541, 32.391445558519415 ] } },
{ "type": "Feature", "properties": { "OBJECTID": 109, "OBJECTID_1": 109, "HEB_NAME": "נטעים", "ENG_NAME": "NETA'IM", "SETL_CODE": 174, "X_COORD": 178926, "Y_COORD": 650312, "EshkolRashuyot": null }, "geometry": { "type": "Point", "coordinates": [ 34.775778388488582, 31.945105646154566 ] } },
{ "type": "Feature", "properties": { "OBJECTID": 110, "OBJECTID_1": 110, "HEB_NAME": "אביחיל", "ENG_NAME": "AVIHAYIL", "SETL_CODE": 175, "X_COORD": 188086, "Y_COORD": 695272, "EshkolRashuyot": null }, "geometry": { "type": "Point", "coordinates": [ 34.871187980399512, 32.350841558786833 ] } },
{ "type": "Feature", "properties": { "OBJECTID": 111, "OBJECTID_1": 111, "HEB_NAME": "אפיקים", "ENG_NAME": "AFIQIM", "SETL_CODE": 176, "X_COORD": 254495, "Y_COORD": 731910, "EshkolRashuyot": 214.0 }, "geometry": { "type": "Point", "coordinates": [ 35.57802792042682, 32.681103124797701 ] } },
{ "type": "Feature", "properties": { "OBJECTID": 112, "OBJECTID_1": 112, "HEB_NAME": "כפר ביל\"ו", "ENG_NAME": "KEFAR BILU", "SETL_CODE": 177, "X_COORD": 183613, "Y_COORD": 642274, "EshkolRashuyot": null }, "geometry": { "type": "Point", "coordinates": [ 34.825647901559009, 31.87278109284485 ] } },
{ "type": "Feature", "properties": { "OBJECTID": 113, "OBJECTID_1": 113, "HEB_NAME": "רמת יוחנן", "ENG_NAME": "RAMAT YOHANAN", "SETL_CODE": 178, "X_COORD": 211748, "Y_COORD": 744316, "EshkolRashuyot": 310.0 }, "geometry": { "type": "Point", "coordinates": [ 35.122147838928697, 32.793496846385821 ] } },
{ "type": "Feature", "properties": { "OBJECTID": 114, "OBJECTID_1": 114, "HEB_NAME": "אבן יהודה", "ENG_NAME": "EVEN YEHUDA", "SETL_CODE": 182, "X_COORD": 189435, "Y_COORD": 686425, "EshkolRashuyot": null }, "geometry": { "type": "Point", "coordinates": [ 34.885797883960038, 32.271097989461929 ] } },
{ "type": "Feature", "properties": { "OBJECTID": 115, "OBJECTID_1": 115, "HEB_NAME": "ירקונה", "ENG_NAME": "YARQONA", "SETL_CODE": 183, "X_COORD": 190631, "Y_COORD": 672464, "EshkolRashuyot": 410.0 }, "geometry": { "type": "Point", "coordinates": [ 34.898912101169948, 32.145229000554892 ] } },
{ "type": "Feature", "properties": { "OBJECTID": 116, "OBJECTID_1": 116, "HEB_NAME": "רמת הכובש", "ENG_NAME": "RAMAT HAKOVESH", "SETL_CODE": 184, "X_COORD": 194335, "Y_COORD": 680447, "EshkolRashuyot": 410.0 }, "geometry": { "type": "Point", "coordinates": [ 34.937959734075655, 32.217311243899587 ] } },
{ "type": "Feature", "properties": { "OBJECTID": 117, "OBJECTID_1": 117, "HEB_NAME": "נעורים", "ENG_NAME": "NE'URIM", "SETL_CODE": 186, "X_COORD": 187233, "Y_COORD": 697851, "EshkolRashuyot": null }, "geometry": { "type": "Point", "coordinates": [ 34.862038106682334, 32.374067536138789 ] } },
{ "type": "Feature", "properties": { "OBJECTID": 118, "OBJECTID_1": 118, "HEB_NAME": "כפר הס", "ENG_NAME": "KEFAR HESS", "SETL_CODE": 187, "X_COORD": 193957, "Y_COORD": 683662, "EshkolRashuyot": 410.0 }, "geometry": { "type": "Point", "coordinates": [ 34.933861524428274, 32.246293241079435 ] } },
{ "type": "Feature", "properties": { "OBJECTID": 119, "OBJECTID_1": 119, "HEB_NAME": "אשדות יעקב (מאוחד)", "ENG_NAME": "ASHDOT YA'AQOV(ME'UHAD)", "SETL_CODE": 188, "X_COORD": 255015, "Y_COORD": 729774, "EshkolRashuyot": 214.0 }, "geometry": { "type": "Point", "coordinates": [ 35.58348889117611, 32.66182245646673 ] } },
{ "type": "Feature", "properties": { "OBJECTID": 120, "OBJECTID_1": 120, "HEB_NAME": "כפר פינס", "ENG_NAME": "KEFAR PINES", "SETL_CODE": 189, "X_COORD": 200463, "Y_COORD": 710002, "EshkolRashuyot": null }, "geometry": { "type": "Point", "coordinates": [ 35.002374309394241, 32.483944969190652 ] } },
{ "type": "Feature", "properties": { "OBJECTID": 121, "OBJECTID_1": 121, "HEB_NAME": "כפר ויתקין", "ENG_NAME": "KEFAR VITKIN", "SETL_CODE": 190, "X_COORD": 188721, "Y_COORD": 698680, "EshkolRashuyot": null }, "geometry": { "type": "Point", "coordinates": [ 34.877822531723467, 32.381586849180685 ] } },
{ "type": "Feature", "properties": { "OBJECTID": 122, "OBJECTID_1": 122, "HEB_NAME": "הדר עם", "ENG_NAME": "HADAR AM", "SETL_CODE": 191, "X_COORD": 190918, "Y_COORD": 695066, "EshkolRashuyot": null }, "geometry": { "type": "Point", "coordinates": [ 34.901277374341532, 32.349058222918742 ] } },
{ "type": "Feature", "properties": { "OBJECTID": 123, "OBJECTID_1": 123, "HEB_NAME": "כפר החורש", "ENG_NAME": "KEFAR HAHORESH", "SETL_CODE": 192, "X_COORD": 225886, "Y_COORD": 734049, "EshkolRashuyot": 213.0 }, "geometry": { "type": "Point", "coordinates": [ 35.27300843355173, 32.700919820426648 ] } },
{ "type": "Feature", "properties": { "OBJECTID": 124, "OBJECTID_1": 124, "HEB_NAME": "כפר חיים", "ENG_NAME": "KEFAR HAYYIM", "SETL_CODE": 193, "X_COORD": 190828, "Y_COORD": 695636, "EshkolRashuyot": null }, "geometry": { "type": "Point", "coordinates": [ 34.900308037985454, 32.354192936368797 ] } },
{ "type": "Feature", "properties": { "OBJECTID": 125, "OBJECTID_1": 125, "HEB_NAME": "משמר השרון", "ENG_NAME": "MISHMAR HASHARON", "SETL_CODE": 194, "X_COORD": 191129, "Y_COORD": 695903, "EshkolRashuyot": null }, "geometry": { "type": "Point", "coordinates": [ 34.903489176878288, 32.35660730954001 ] } },
{ "type": "Feature", "properties": { "OBJECTID": 126, "OBJECTID_1": 126, "HEB_NAME": "קדימה-צורן", "ENG_NAME": "QADIMA-ZORAN", "SETL_CODE": 195, "X_COORD": 192639, "Y_COORD": 687445, "EshkolRashuyot": 410.0 }, "geometry": { "type": "Point", "coordinates": [ 34.91977472027795, 32.280380041219772 ] } },
{ "type": "Feature", "properties": { "OBJECTID": 127, "OBJECTID_1": 127, "HEB_NAME": "גיבתון", "ENG_NAME": "GIBBETON", "SETL_CODE": 196, "X_COORD": 181193, "Y_COORD": 644067, "EshkolRashuyot": 420.0 }, "geometry": { "type": "Point", "coordinates": [ 34.800004063293038, 31.888872236939513 ] } },
{ "type": "Feature", "properties": { "OBJECTID": 128, "OBJECTID_1": 128, "HEB_NAME": "מעברות", "ENG_NAME": "MA'BAROT", "SETL_CODE": 197, "X_COORD": 191265, "Y_COORD": 696682, "EshkolRashuyot": null }, "geometry": { "type": "Point", "coordinates": [ 34.904914237254346, 32.363638385714772 ] } },
{ "type": "Feature", "properties": { "OBJECTID": 129, "OBJECTID_1": 129, "HEB_NAME": "צופית", "ENG_NAME": "ZOFIT", "SETL_CODE": 198, "X_COORD": 192706, "Y_COORD": 677762, "EshkolRashuyot": 410.0 }, "geometry": { "type": "Point", "coordinates": [ 34.920760744175027, 32.193056998507352 ] } },
{ "type": "Feature", "properties": { "OBJECTID": 130, "OBJECTID_1": 130, "HEB_NAME": "אשדות יעקב (איחוד)", "ENG_NAME": "ASHDOT YA'AQOV(IHUD)", "SETL_CODE": 199, "X_COORD": 254716, "Y_COORD": 729365, "EshkolRashuyot": 214.0 }, "geometry": { "type": "Point", "coordinates": [ 35.580286318385376, 32.65814839099243 ] } },
{ "type": "Feature", "properties": { "OBJECTID": 131, "OBJECTID_1": 131, "HEB_NAME": "בית ינאי", "ENG_NAME": "BET YANNAY", "SETL_CODE": 200, "X_COORD": 187370, "Y_COORD": 698656, "EshkolRashuyot": null }, "geometry": { "type": "Point", "coordinates": [ 34.863466807700945, 32.381334927495139 ] } },
{ "type": "Feature", "properties": { "OBJECTID": 132, "OBJECTID_1": 132, "HEB_NAME": "בית עובד", "ENG_NAME": "BET OVED", "SETL_CODE": 202, "X_COORD": 178705, "Y_COORD": 647731, "EshkolRashuyot": null }, "geometry": { "type": "Point", "coordinates": [ 34.773554872467869, 31.921830384605258 ] } },
{ "type": "Feature", "properties": { "OBJECTID": 133, "OBJECTID_1": 133, "HEB_NAME": "אלישיב", "ENG_NAME": "ELYASHIV", "SETL_CODE": 204, "X_COORD": 191718, "Y_COORD": 698592, "EshkolRashuyot": null }, "geometry": { "type": "Point", "coordinates": [ 34.909671468461056, 32.380873532731933 ] } },
{ "type": "Feature", "properties": { "OBJECTID": 134, "OBJECTID_1": 134, "HEB_NAME": "חגלה", "ENG_NAME": "HOGLA", "SETL_CODE": 205, "X_COORD": 193279, "Y_COORD": 699271, "EshkolRashuyot": null }, "geometry": { "type": "Point", "coordinates": [ 34.92623661691151, 32.387035197415209 ] } },
{ "type": "Feature", "properties": { "OBJECTID": 135, "OBJECTID_1": 135, "HEB_NAME": "רמות השבים", "ENG_NAME": "RAMOT HASHAVIM", "SETL_CODE": 206, "X_COORD": 189296, "Y_COORD": 674831, "EshkolRashuyot": 410.0 }, "geometry": { "type": "Point", "coordinates": [ 34.88469079799281, 32.166539544747337 ] } },
{ "type": "Feature", "properties": { "OBJECTID": 136, "OBJECTID_1": 136, "HEB_NAME": "גבעת ח\"ן", "ENG_NAME": "GIV'AT HEN", "SETL_CODE": 207, "X_COORD": 188318, "Y_COORD": 674985, "EshkolRashuyot": 410.0 }, "geometry": { "type": "Point", "coordinates": [ 34.874308473288409, 32.167907438877066 ] } },
{ "type": "Feature", "properties": { "OBJECTID": 137, "OBJECTID_1": 137, "HEB_NAME": "מוצא עילית", "ENG_NAME": "MOZA ILLIT", "SETL_CODE": 208, "X_COORD": 215022, "Y_COORD": 633456, "EshkolRashuyot": null }, "geometry": { "type": "Point", "coordinates": [ 35.157618047612779, 31.793815602717697 ] } },
{ "type": "Feature", "properties": { "OBJECTID": 138, "OBJECTID_1": 138, "HEB_NAME": "בית צבי", "ENG_NAME": "BET ZEVI", "SETL_CODE": 212, "X_COORD": 197448, "Y_COORD": 736156, "EshkolRashuyot": null }, "geometry": { "type": "Point", "coordinates": [ 34.969686248117789, 32.71972223286069 ] } },
{ "type": "Feature", "properties": { "OBJECTID": 139, "OBJECTID_1": 139, "HEB_NAME": "משמרות", "ENG_NAME": "MISHMAROT", "SETL_CODE": 213, "X_COORD": 198769, "Y_COORD": 710306, "EshkolRashuyot": null }, "geometry": { "type": "Point", "coordinates": [ 34.984340645558561, 32.486650217416845 ] } },
{ "type": "Feature", "properties": { "OBJECTID": 140, "OBJECTID_1": 140, "HEB_NAME": "כפר הרא\"ה", "ENG_NAME": "KEFAR HARO'E", "SETL_CODE": 217, "X_COORD": 191923, "Y_COORD": 699672, "EshkolRashuyot": null }, "geometry": { "type": "Point", "coordinates": [ 34.911820524926426, 32.390618247872126 ] } },
{ "type": "Feature", "properties": { "OBJECTID": 141, "OBJECTID_1": 141, "HEB_NAME": "גני עם", "ENG_NAME": "GANNE AM", "SETL_CODE": 218, "X_COORD": 190861, "Y_COORD": 673138, "EshkolRashuyot": 410.0 }, "geometry": { "type": "Point", "coordinates": [ 34.901329341019427, 32.151311573026966 ] } },
{ "type": "Feature", "properties": { "OBJECTID": 142, "OBJECTID_1": 142, "HEB_NAME": "חיבת ציון", "ENG_NAME": "HIBBAT ZIYYON", "SETL_CODE": 219, "X_COORD": 191992, "Y_COORD": 700426, "EshkolRashuyot": null }, "geometry": { "type": "Point", "coordinates": [ 34.912533471941657, 32.397419843459325 ] } },
{ "type": "Feature", "properties": { "OBJECTID": 143, "OBJECTID_1": 143, "HEB_NAME": "כפר ביאליק", "ENG_NAME": "KEFAR BIALIK", "SETL_CODE": 220, "X_COORD": 208405, "Y_COORD": 747414, "EshkolRashuyot": 310.0 }, "geometry": { "type": "Point", "coordinates": [ 35.086427904208485, 32.821396747818575 ] } },
{ "type": "Feature", "properties": { "OBJECTID": 144, "OBJECTID_1": 144, "HEB_NAME": "עין עירון", "ENG_NAME": "EN IRON", "SETL_CODE": 223, "X_COORD": 201115, "Y_COORD": 709964, "EshkolRashuyot": null }, "geometry": { "type": "Point", "coordinates": [ 35.009305404496821, 32.483611368286482 ] } },
{ "type": "Feature", "properties": { "OBJECTID": 145, "OBJECTID_1": 145, "HEB_NAME": "שושנת העמקים", "ENG_NAME": "SHOSHANNAT HAAMAQIM", "SETL_CODE": 224, "X_COORD": 186751, "Y_COORD": 695641, "EshkolRashuyot": null }, "geometry": { "type": "Point", "coordinates": [ 34.85699421529344, 32.354129979480405 ] } },
{ "type": "Feature", "properties": { "OBJECTID": 146, "OBJECTID_1": 146, "HEB_NAME": "גן השומרון", "ENG_NAME": "GAN HASHOMERON", "SETL_CODE": 225, "X_COORD": 200085, "Y_COORD": 707640, "EshkolRashuyot": null }, "geometry": { "type": "Point", "coordinates": [ 34.99839749281594, 32.462640283620239 ] } },
{ "type": "Feature", "properties": { "OBJECTID": 147, "OBJECTID_1": 147, "HEB_NAME": "גני תקווה", "ENG_NAME": "GANNE TIQWA", "SETL_CODE": 229, "X_COORD": 188362, "Y_COORD": 663022, "EshkolRashuyot": null }, "geometry": { "type": "Point", "coordinates": [ 34.875162106356598, 32.060028644792823 ] } },
{ "type": "Feature", "properties": { "OBJECTID": 148, "OBJECTID_1": 148, "HEB_NAME": "מעש", "ENG_NAME": "MA'AS", "SETL_CODE": 230, "X_COORD": 189738, "Y_COORD": 663530, "EshkolRashuyot": 410.0 }, "geometry": { "type": "Point", "coordinates": [ 34.889719676417471, 32.064640618440151 ] } },
{ "type": "Feature", "properties": { "OBJECTID": 149, "OBJECTID_1": 149, "HEB_NAME": "שפיים", "ENG_NAME": "SHEFAYIM", "SETL_CODE": 232, "X_COORD": 183674, "Y_COORD": 680494, "EshkolRashuyot": null }, "geometry": { "type": "Point", "coordinates": [ 34.824866595615219, 32.217444205500719 ] } },
{ "type": "Feature", "properties": { "OBJECTID": 150, "OBJECTID_1": 150, "HEB_NAME": "כפר ידידיה", "ENG_NAME": "KEFAR YEDIDYA", "SETL_CODE": 233, "X_COORD": 190657, "Y_COORD": 694691, "EshkolRashuyot": null }, "geometry": { "type": "Point", "coordinates": [ 34.8985150807449, 32.345668252545856 ] } },
{ "type": "Feature", "properties": { "OBJECTID": 151, "OBJECTID_1": 151, "HEB_NAME": "ביצרון", "ENG_NAME": "BIZZARON", "SETL_CODE": 234, "X_COORD": 174492, "Y_COORD": 633801, "EshkolRashuyot": 420.0 }, "geometry": { "type": "Point", "coordinates": [ 34.729647968929605, 31.796048774257187 ] } },
{ "type": "Feature", "properties": { "OBJECTID": 152, "OBJECTID_1": 152, "HEB_NAME": "חבצלת השרון", "ENG_NAME": "HAVAZZELET HASHARON", "SETL_CODE": 235, "X_COORD": 187299, "Y_COORD": 696358, "EshkolRashuyot": null }, "geometry": { "type": "Point", "coordinates": [ 34.862785432430385, 32.360611518667767 ] } },
{ "type": "Feature", "properties": { "OBJECTID": 153, "OBJECTID_1": 153, "HEB_NAME": "שער העמקים", "ENG_NAME": "SHA'AR HAAMAQIM", "SETL_CODE": 237, "X_COORD": 210856, "Y_COORD": 736508, "EshkolRashuyot": 310.0 }, "geometry": { "type": "Point", "coordinates": [ 35.112700419600046, 32.723085316767325 ] } },
{ "type": "Feature", "properties": { "OBJECTID": 154, "OBJECTID_1": 154, "HEB_NAME": "גן חיים", "ENG_NAME": "GAN HAYYIM", "SETL_CODE": 239, "X_COORD": 191281, "Y_COORD": 677989, "EshkolRashuyot": 410.0 }, "geometry": { "type": "Point", "coordinates": [ 34.905636312183226, 32.195071865030059 ] } },
{ "type": "Feature", "properties": { "OBJECTID": 155, "OBJECTID_1": 155, "HEB_NAME": "יקנעם עילית", "ENG_NAME": "YOQNE'AM ILLIT", "SETL_CODE": 240, "X_COORD": 209108, "Y_COORD": 728031, "EshkolRashuyot": 310.0 }, "geometry": { "type": "Point", "coordinates": [ 35.094148683297242, 32.646627188411763 ] } },
{ "type": "Feature", "properties": { "OBJECTID": 156, "OBJECTID_1": 156, "HEB_NAME": "יקנעם (מושבה)", "ENG_NAME": "YOQNE'AM(MOSHAVA)", "SETL_CODE": 241, "X_COORD": 211060, "Y_COORD": 728927, "EshkolRashuyot": 213.0 }, "geometry": { "type": "Point", "coordinates": [ 35.114948720452972, 32.654725082846397 ] } },
{ "type": "Feature", "properties": { "OBJECTID": 157, "OBJECTID_1": 157, "HEB_NAME": "בית השיטה", "ENG_NAME": "BET HASHITTA", "SETL_CODE": 242, "X_COORD": 241563, "Y_COORD": 717548, "EshkolRashuyot": 213.0 }, "geometry": { "type": "Point", "coordinates": [ 35.439811380322134, 32.551932391524367 ] } },
{ "type": "Feature", "properties": { "OBJECTID": 158, "OBJECTID_1": 158, "HEB_NAME": "נתיבות", "ENG_NAME": "NETIVOT", "SETL_CODE": 246, "X_COORD": 160432, "Y_COORD": 592315, "EshkolRashuyot": 620.0 }, "geometry": { "type": "Point", "coordinates": [ 34.583678897489776, 31.421279179681434 ] } },
{ "type": "Feature", "properties": { "OBJECTID": 159, "OBJECTID_1": 159, "HEB_NAME": "רשפון", "ENG_NAME": "RISHPON", "SETL_CODE": 247, "X_COORD": 183615, "Y_COORD": 678620, "EshkolRashuyot": null }, "geometry": { "type": "Point", "coordinates": [ 34.824312645809741, 32.200547697629041 ] } },
{ "type": "Feature", "properties": { "OBJECTID": 160, "OBJECTID_1": 160, "HEB_NAME": "בית שערים", "ENG_NAME": "BET SHE'ARIM", "SETL_CODE": 248, "X_COORD": 216997, "Y_COORD": 733577, "EshkolRashuyot": 213.0 }, "geometry": { "type": "Point", "coordinates": [ 35.1782112927689, 32.696682087742325 ] } },
{ "type": "Feature", "properties": { "OBJECTID": 161, "OBJECTID_1": 161, "HEB_NAME": "כפר סירקין", "ENG_NAME": "KEFAR SIRKIN", "SETL_CODE": 249, "X_COORD": 192997, "Y_COORD": 664883, "EshkolRashuyot": 410.0 }, "geometry": { "type": "Point", "coordinates": [ 34.924195002904575, 32.076922781325571 ] } },
{ "type": "Feature", "properties": { "OBJECTID": 162, "OBJECTID_1": 162, "HEB_NAME": "הזורע", "ENG_NAME": "HAZOREA", "SETL_CODE": 250, "X_COORD": 211481, "Y_COORD": 727738, "EshkolRashuyot": 213.0 }, "geometry": { "type": "Point", "coordinates": [ 35.119444067080444, 32.644004167204578 ] } },
{ "type": "Feature", "properties": { "OBJECTID": 163, "OBJECTID_1": 163, "HEB_NAME": "ביתן אהרן", "ENG_NAME": "BITAN AHARON", "SETL_CODE": 252, "X_COORD": 188005, "Y_COORD": 696865, "EshkolRashuyot": null }, "geometry": { "type": "Point", "coordinates": [ 34.870267166432143, 32.365203643444652 ] } },
{ "type": "Feature", "properties": { "OBJECTID": 164, "OBJECTID_1": 164, "HEB_NAME": "חולתה", "ENG_NAME": "HULATA", "SETL_CODE": 253, "X_COORD": 257324, "Y_COORD": 773011, "EshkolRashuyot": 211.0 }, "geometry": { "type": "Point", "coordinates": [ 35.609878183923755, 33.051602036343681 ] } },
{ "type": "Feature", "properties": { "OBJECTID": 165, "OBJECTID_1": 165, "HEB_NAME": "כפר המכבי", "ENG_NAME": "KEFAR HAMAKKABBI", "SETL_CODE": 254, "X_COORD": 211167, "Y_COORD": 743937, "EshkolRashuyot": 310.0 }, "geometry": { "type": "Point", "coordinates": [ 35.115950116090609, 32.790076600516564 ] } },
{ "type": "Feature", "properties": { "OBJECTID": 166, "OBJECTID_1": 166, "HEB_NAME": "כפר חיטים", "ENG_NAME": "KEFAR HITTIM", "SETL_CODE": 255, "X_COORD": 247396, "Y_COORD": 745196, "EshkolRashuyot": 214.0 }, "geometry": { "type": "Point", "coordinates": [ 35.502742900669681, 32.801100817908271 ] } },
{ "type": "Feature", "properties": { "OBJECTID": 167, "OBJECTID_1": 167, "HEB_NAME": "ניר דוד (תל עמל)", "ENG_NAME": "NIR DAWID (TEL AMAL)", "SETL_CODE": 256, "X_COORD": 243082, "Y_COORD": 712209, "EshkolRashuyot": 214.0 }, "geometry": { "type": "Point", "coordinates": [ 35.455845665587788, 32.50375885929283 ] } },
{ "type": "Feature", "properties": { "OBJECTID": 168, "OBJECTID_1": 168, "HEB_NAME": "נופך", "ENG_NAME": "NOFEKH", "SETL_CODE": 257, "X_COORD": 192672, "Y_COORD": 661170, "EshkolRashuyot": null }, "geometry": { "type": "Point", "coordinates": [ 34.920853410988364, 32.043439239213328 ] } },
{ "type": "Feature", "properties": { "OBJECTID": 169, "OBJECTID_1": 169, "HEB_NAME": "בית יהושע", "ENG_NAME": "BET YEHOSHUA", "SETL_CODE": 288, "X_COORD": 187527, "Y_COORD": 685213, "EshkolRashuyot": null }, "geometry": { "type": "Point", "coordinates": [ 34.865589508657202, 32.260114703268755 ] } },
{ "type": "Feature", "properties": { "OBJECTID": 170, "OBJECTID_1": 170, "HEB_NAME": "עין המפרץ", "ENG_NAME": "EN HAMIFRAZ", "SETL_CODE": 289, "X_COORD": 209360, "Y_COORD": 756478, "EshkolRashuyot": 212.0 }, "geometry": { "type": "Point", "coordinates": [ 35.09651967561183, 32.90313859821282 ] } },
{ "type": "Feature", "properties": { "OBJECTID": 171, "OBJECTID_1": 171, "HEB_NAME": "מעיין צבי", "ENG_NAME": "MA'YAN ZEVI", "SETL_CODE": 290, "X_COORD": 194685, "Y_COORD": 719355, "EshkolRashuyot": null }, "geometry": { "type": "Point", "coordinates": [ 34.940654969036117, 32.568163664385736 ] } },
{ "type": "Feature", "properties": { "OBJECTID": 172, "OBJECTID_1": 172, "HEB_NAME": "שרונה", "ENG_NAME": "SHARONA", "SETL_CODE": 292, "X_COORD": 244016, "Y_COORD": 736876, "EshkolRashuyot": 214.0 }, "geometry": { "type": "Point", "coordinates": [ 35.46643638223906, 32.726158140431458 ] } },
{ "type": "Feature", "properties": { "OBJECTID": 173, "OBJECTID_1": 173, "HEB_NAME": "שדה יואב", "ENG_NAME": "SEDE YO'AV", "SETL_CODE": 293, "X_COORD": 169443, "Y_COORD": 617089, "EshkolRashuyot": 420.0 }, "geometry": { "type": "Point", "coordinates": [ 34.677193130983994, 31.645128811847162 ] } },
{ "type": "Feature", "properties": { "OBJECTID": 174, "OBJECTID_1": 174, "HEB_NAME": "אילון", "ENG_NAME": "ELON", "SETL_CODE": 294, "X_COORD": 220615, "Y_COORD": 774234, "EshkolRashuyot": 212.0 }, "geometry": { "type": "Point", "coordinates": [ 35.216847756887347, 33.063279497345746 ] } },
{ "type": "Feature", "properties": { "OBJECTID": 175, "OBJECTID_1": 175, "HEB_NAME": "כפר רופין", "ENG_NAME": "KEFAR RUPPIN", "SETL_CODE": 295, "X_COORD": 252570, "Y_COORD": 707136, "EshkolRashuyot": 214.0 }, "geometry": { "type": "Point", "coordinates": [ 35.556631814867892, 32.457768993342157 ] } },
{ "type": "Feature", "properties": { "OBJECTID": 176, "OBJECTID_1": 176, "HEB_NAME": "נווה איתן", "ENG_NAME": "NEWE ETAN", "SETL_CODE": 296, "X_COORD": 250220, "Y_COORD": 710925, "EshkolRashuyot": 214.0 }, "geometry": { "type": "Point", "coordinates": [ 35.531766205887919, 32.492005080471408 ] } },
{ "type": "Feature", "properties": { "OBJECTID": 177, "OBJECTID_1": 177, "HEB_NAME": "כפר מסריק", "ENG_NAME": "KEFAR MASARYK", "SETL_CODE": 297, "X_COORD": 209708, "Y_COORD": 755060, "EshkolRashuyot": 212.0 }, "geometry": { "type": "Point", "coordinates": [ 35.100260534466216, 32.890351962678587 ] } },
{ "type": "Feature", "properties": { "OBJECTID": 178, "OBJECTID_1": 178, "HEB_NAME": "מסילות", "ENG_NAME": "MESILLOT", "SETL_CODE": 298, "X_COORD": 244802, "Y_COORD": 711308, "EshkolRashuyot": 214.0 }, "geometry": { "type": "Point", "coordinates": [ 35.474128446471582, 32.495594470522185 ] } },
{ "type": "Feature", "properties": { "OBJECTID": 179, "OBJECTID_1": 179, "HEB_NAME": "דלייה", "ENG_NAME": "DALIYYA", "SETL_CODE": 300, "X_COORD": 207294, "Y_COORD": 721717, "EshkolRashuyot": 213.0 }, "geometry": { "type": "Point", "coordinates": [ 35.074899669722818, 32.589673883846764 ] } },
{ "type": "Feature", "properties": { "OBJECTID": 180, "OBJECTID_1": 180, "HEB_NAME": "בית עוזיאל", "ENG_NAME": "BET UZZI'EL", "SETL_CODE": 301, "X_COORD": 191143, "Y_COORD": 642000, "EshkolRashuyot": null }, "geometry": { "type": "Point", "coordinates": [ 34.905227315516541, 31.870526240123699 ] } },
{ "type": "Feature", "properties": { "OBJECTID": 181, "OBJECTID_1": 181, "HEB_NAME": "דפנה", "ENG_NAME": "DAFNA", "SETL_CODE": 302, "X_COORD": 259917, "Y_COORD": 792803, "EshkolRashuyot": 211.0 }, "geometry": { "type": "Point", "coordinates": [ 35.638519094133066, 33.229953175090053 ] } },
{ "type": "Feature", "properties": { "OBJECTID": 182, "OBJECTID_1": 182, "HEB_NAME": "דן", "ENG_NAME": "DAN", "SETL_CODE": 303, "X_COORD": 261245, "Y_COORD": 793938, "EshkolRashuyot": 211.0 }, "geometry": { "type": "Point", "coordinates": [ 35.652814706286406, 33.240137337168683 ] } },
{ "type": "Feature", "properties": { "OBJECTID": 183, "OBJECTID_1": 183, "HEB_NAME": "שדה אליהו", "ENG_NAME": "SEDE ELIYYAHU", "SETL_CODE": 304, "X_COORD": 248537, "Y_COORD": 705199, "EshkolRashuyot": 214.0 }, "geometry": { "type": "Point", "coordinates": [ 35.513681923685844, 32.440410870487455 ] } },
{ "type": "Feature", "properties": { "OBJECTID": 184, "OBJECTID_1": 184, "HEB_NAME": "גשר", "ENG_NAME": "GESHER", "SETL_CODE": 305, "X_COORD": 252000, "Y_COORD": 725187, "EshkolRashuyot": 214.0 }, "geometry": { "type": "Point", "coordinates": [ 35.5511900470486, 32.6205516630841 ] } },
{ "type": "Feature", "properties": { "OBJECTID": 185, "OBJECTID_1": 185, "HEB_NAME": "שדמות דבורה", "ENG_NAME": "SHADMOT DEVORA", "SETL_CODE": 306, "X_COORD": 241174, "Y_COORD": 733556, "EshkolRashuyot": 214.0 }, "geometry": { "type": "Point", "coordinates": [ 35.436039847073729, 32.696280911460661 ] } },
{ "type": "Feature", "properties": { "OBJECTID": 186, "OBJECTID_1": 186, "HEB_NAME": "הזורעים", "ENG_NAME": "HAZORE'IM", "SETL_CODE": 307, "X_COORD": 247384, "Y_COORD": 739085, "EshkolRashuyot": 214.0 }, "geometry": { "type": "Point", "coordinates": [ 35.502425778338797, 32.745994840859808 ] } },
{ "type": "Feature", "properties": { "OBJECTID": 187, "OBJECTID_1": 187, "HEB_NAME": "מחניים", "ENG_NAME": "MAHANAYIM", "SETL_CODE": 308, "X_COORD": 253635, "Y_COORD": 766062, "EshkolRashuyot": 211.0 }, "geometry": { "type": "Point", "coordinates": [ 35.570121120351217, 32.989060806828626 ] } },
{ "type": "Feature", "properties": { "OBJECTID": 188, "OBJECTID_1": 188, "HEB_NAME": "נהורה", "ENG_NAME": "NEHORA", "SETL_CODE": 309, "X_COORD": 172125, "Y_COORD": 614621, "EshkolRashuyot": null }, "geometry": { "type": "Point", "coordinates": [ 34.705580044334127, 31.622979753719168 ] } },
{ "type": "Feature", "properties": { "OBJECTID": 189, "OBJECTID_1": 189, "HEB_NAME": "כפר גליקסון", "ENG_NAME": "KEFAR GLIKSON", "SETL_CODE": 310, "X_COORD": 200653, "Y_COORD": 712397, "EshkolRashuyot": null }, "geometry": { "type": "Point", "coordinates": [ 35.004349613747749, 32.505546292352896 ] } },
{ "type": "Feature", "properties": { "OBJECTID": 190, "OBJECTID_1": 190, "HEB_NAME": "תלמים", "ENG_NAME": "TELAMIM", "SETL_CODE": 814, "X_COORD": 168900, "Y_COORD": 608135, "EshkolRashuyot": null }, "geometry": { "type": "Point", "coordinates": [ 34.671926761258334, 31.564357698252032 ] } },
{ "type": "Feature", "properties": { "OBJECTID": 191, "OBJECTID_1": 191, "HEB_NAME": "זבדיאל", "ENG_NAME": "ZAVDI'EL", "SETL_CODE": 815, "X_COORD": 177316, "Y_COORD": 618586, "EshkolRashuyot": null }, "geometry": { "type": "Point", "coordinates": [ 34.760127259807923, 31.658938899253442 ] } },
{ "type": "Feature", "properties": { "OBJECTID": 192, "OBJECTID_1": 192, "HEB_NAME": "זנוח", "ENG_NAME": "ZANOAH", "SETL_CODE": 816, "X_COORD": 200008, "Y_COORD": 626676, "EshkolRashuyot": null }, "geometry": { "type": "Point", "coordinates": [ 34.999217707759534, 31.732512047901871 ] } },
{ "type": "Feature", "properties": { "OBJECTID": 193, "OBJECTID_1": 193, "HEB_NAME": "עזריקם", "ENG_NAME": "AZRIQAM", "SETL_CODE": 817, "X_COORD": 171383, "Y_COORD": 628801, "EshkolRashuyot": 420.0 }, "geometry": { "type": "Point", "coordinates": [ 34.697072745010935, 31.75082834919969 ] } },
{ "type": "Feature", "properties": { "OBJECTID": 194, "OBJECTID_1": 194, "HEB_NAME": "זרחיה", "ENG_NAME": "ZERAHYA", "SETL_CODE": 818, "X_COORD": 175949, "Y_COORD": 621101, "EshkolRashuyot": null }, "geometry": { "type": "Point", "coordinates": [ 34.745601773398093, 31.681573475588792 ] } },
{ "type": "Feature", "properties": { "OBJECTID": 195, "OBJECTID_1": 195, "HEB_NAME": "אביגדור", "ENG_NAME": "AVIGEDOR", "SETL_CODE": 819, "X_COORD": 175735, "Y_COORD": 624280, "EshkolRashuyot": 420.0 }, "geometry": { "type": "Point", "coordinates": [ 34.743204052422023, 31.710232646153461 ] } },
{ "type": "Feature", "properties": { "OBJECTID": 196, "OBJECTID_1": 196, "HEB_NAME": "חלץ", "ENG_NAME": "HELEZ", "SETL_CODE": 820, "X_COORD": 167638, "Y_COORD": 609658, "EshkolRashuyot": 620.0 }, "geometry": { "type": "Point", "coordinates": [ 34.658552420968086, 31.578032687130932 ] } },
{ "type": "Feature", "properties": { "OBJECTID": 197, "OBJECTID_1": 197, "HEB_NAME": "אחוזם", "ENG_NAME": "AHUZZAM", "SETL_CODE": 821, "X_COORD": 178225, "Y_COORD": 606879, "EshkolRashuyot": null }, "geometry": { "type": "Point", "coordinates": [ 34.770201006451181, 31.553398701641939 ] } },
{ "type": "Feature", "properties": { "OBJECTID": 198, "OBJECTID_1": 198, "HEB_NAME": "מטע", "ENG_NAME": "MATTA", "SETL_CODE": 822, "X_COORD": 205963, "Y_COORD": 625052, "EshkolRashuyot": null }, "geometry": { "type": "Point", "coordinates": [ 35.062083408428371, 31.71795492454569 ] } },
{ "type": "Feature", "properties": { "OBJECTID": 199, "OBJECTID_1": 199, "HEB_NAME": "בר גיורא", "ENG_NAME": "BAR GIYYORA", "SETL_CODE": 823, "X_COORD": 206943, "Y_COORD": 626365, "EshkolRashuyot": null }, "geometry": { "type": "Point", "coordinates": [ 35.072402566561685, 31.729805913977625 ] } },
{ "type": "Feature", "properties": { "OBJECTID": 200, "OBJECTID_1": 200, "HEB_NAME": "כוכב מיכאל", "ENG_NAME": "KOKHAV MIKHA'EL", "SETL_CODE": 824, "X_COORD": 168644, "Y_COORD": 615359, "EshkolRashuyot": 620.0 }, "geometry": { "type": "Point", "coordinates": [ 34.668854241751774, 31.629493843888014 ] } },
{ "type": "Feature", "properties": { "OBJECTID": 201, "OBJECTID_1": 201, "HEB_NAME": "נס הרים", "ENG_NAME": "NES HARIM", "SETL_CODE": 825, "X_COORD": 205545, "Y_COORD": 628044, "EshkolRashuyot": null }, "geometry": { "type": "Point", "coordinates": [ 35.057624571277266, 31.744928347440919 ] } },
{ "type": "Feature", "properties": { "OBJECTID": 202, "OBJECTID_1": 202, "HEB_NAME": "עוזה", "ENG_NAME": "UZA", "SETL_CODE": 826, "X_COORD": 177683, "Y_COORD": 611294, "EshkolRashuyot": null }, "geometry": { "type": "Point", "coordinates": [ 34.764303508542312, 31.593193449642175 ] } },
{ "type": "Feature", "properties": { "OBJECTID": 203, "OBJECTID_1": 203, "HEB_NAME": "נווה מבטח", "ENG_NAME": "NEWE MIVTAH", "SETL_CODE": 827, "X_COORD": 175584, "Y_COORD": 634856, "EshkolRashuyot": 420.0 }, "geometry": { "type": "Point", "coordinates": [ 34.741132203434212, 31.805608490971608 ] } },
{ "type": "Feature", "properties": { "OBJECTID": 204, "OBJECTID_1": 204, "HEB_NAME": "ישרש", "ENG_NAME": "YASHRESH", "SETL_CODE": 828, "X_COORD": 185752, "Y_COORD": 646971, "EshkolRashuyot": null }, "geometry": { "type": "Point", "coordinates": [ 34.848091227746941, 31.915204688537564 ] } },
{ "type": "Feature", "properties": { "OBJECTID": 205, "OBJECTID_1": 205, "HEB_NAME": "מבטחים", "ENG_NAME": "MIVTAHIM", "SETL_CODE": 829, "X_COORD": 143570, "Y_COORD": 572366, "EshkolRashuyot": 620.0 }, "geometry": { "type": "Point", "coordinates": [ 34.407872333186958, 31.240392421476045 ] } },
{ "type": "Feature", "properties": { "OBJECTID": 206, "OBJECTID_1": 206, "HEB_NAME": "ירוחם", "ENG_NAME": "YEROHAM", "SETL_CODE": 831, "X_COORD": 193073, "Y_COORD": 544144, "EshkolRashuyot": 610.0 }, "geometry": { "type": "Point", "coordinates": [ 34.928223077254358, 30.988028686841535 ] } },
{ "type": "Feature", "properties": { "OBJECTID": 207, "OBJECTID_1": 207, "HEB_NAME": "נורית", "ENG_NAME": "NURIT", "SETL_CODE": 833, "X_COORD": 233724, "Y_COORD": 716425, "EshkolRashuyot": 213.0 }, "geometry": { "type": "Point", "coordinates": [ 35.356334894457248, 32.541927974459391 ] } },
{ "type": "Feature", "properties": { "OBJECTID": 208, "OBJECTID_1": 208, "HEB_NAME": "גנות", "ENG_NAME": "GANNOT", "SETL_CODE": 836, "X_COORD": 183942, "Y_COORD": 658369, "EshkolRashuyot": null }, "geometry": { "type": "Point", "coordinates": [ 34.828533502773894, 32.017937137572048 ] } },
{ "type": "Feature", "properties": { "OBJECTID": 209, "OBJECTID_1": 209, "HEB_NAME": "עזריאל", "ENG_NAME": "AZRI'EL", "SETL_CODE": 837, "X_COORD": 197421, "Y_COORD": 685442, "EshkolRashuyot": 410.0 }, "geometry": { "type": "Point", "coordinates": [ 34.970583231535947, 32.262420728703901 ] } },
{ "type": "Feature", "properties": { "OBJECTID": 210, "OBJECTID_1": 210, "HEB_NAME": "פדיה", "ENG_NAME": "PEDAYA", "SETL_CODE": 838, "X_COORD": 188996, "Y_COORD": 640618, "EshkolRashuyot": null }, "geometry": { "type": "Point", "coordinates": [ 34.882583021935936, 31.858002790765756 ] } },
{ "type": "Feature", "properties": { "OBJECTID": 211, "OBJECTID_1": 211, "HEB_NAME": "פתחיה", "ENG_NAME": "PETAHYA", "SETL_CODE": 839, "X_COORD": 189295, "Y_COORD": 641653, "EshkolRashuyot": null }, "geometry": { "type": "Point", "coordinates": [ 34.885711389225861, 31.867346839009254 ] } },
{ "type": "Feature", "properties": { "OBJECTID": 212, "OBJECTID_1": 212, "HEB_NAME": "כיסופים", "ENG_NAME": "KISSUFIM", "SETL_CODE": 840, "X_COORD": 142844, "Y_COORD": 587326, "EshkolRashuyot": 620.0 }, "geometry": { "type": "Point", "coordinates": [ 34.399106702098855, 31.37525970753752 ] } },
{ "type": "Feature", "properties": { "OBJECTID": 213, "OBJECTID_1": 213, "HEB_NAME": "אלישמע", "ENG_NAME": "ELISHAMA", "SETL_CODE": 841, "X_COORD": 193418, "Y_COORD": 673268, "EshkolRashuyot": 410.0 }, "geometry": { "type": "Point", "coordinates": [ 34.928428964711571, 32.1525474189447 ] } },
{ "type": "Feature", "properties": { "OBJECTID": 214, "OBJECTID_1": 214, "HEB_NAME": "געש", "ENG_NAME": "GA'ASH", "SETL_CODE": 842, "X_COORD": 183666, "Y_COORD": 681788, "EshkolRashuyot": null }, "geometry": { "type": "Point", "coordinates": [ 34.824738476307466, 32.229108925156766 ] } },
{ "type": "Feature", "properties": { "OBJECTID": 215, "OBJECTID_1": 215, "HEB_NAME": "מרגליות", "ENG_NAME": "MARGALIYYOT", "SETL_CODE": 843, "X_COORD": 251198, "Y_COORD": 791097, "EshkolRashuyot": 211.0 }, "geometry": { "type": "Point", "coordinates": [ 35.544918838551347, 33.214861370594306 ] } },
{ "type": "Feature", "properties": { "OBJECTID": 216, "OBJECTID_1": 216, "HEB_NAME": "נחל עוז", "ENG_NAME": "NAHAL OZ", "SETL_CODE": 844, "X_COORD": 152270, "Y_COORD": 598074, "EshkolRashuyot": 620.0 }, "geometry": { "type": "Point", "coordinates": [ 34.497458430516275, 31.472776203110431 ] } },
{ "type": "Feature", "properties": { "OBJECTID": 217, "OBJECTID_1": 217, "HEB_NAME": "כפר עזה", "ENG_NAME": "KEFAR AZZA", "SETL_CODE": 845, "X_COORD": 155552, "Y_COORD": 599254, "EshkolRashuyot": 620.0 }, "geometry": { "type": "Point", "coordinates": [ 34.531913329466192, 31.483599392947095 ] } },
{ "type": "Feature", "properties": { "OBJECTID": 218, "OBJECTID_1": 218, "HEB_NAME": "שפר", "ENG_NAME": "SHEFER", "SETL_CODE": 846, "X_COORD": 241128, "Y_COORD": 760985, "EshkolRashuyot": 211.0 }, "geometry": { "type": "Point", "coordinates": [ 35.436190510120191, 32.943605925406921 ] } },
{ "type": "Feature", "properties": { "OBJECTID": 219, "OBJECTID_1": 219, "HEB_NAME": "בית רבן", "ENG_NAME": "BET RABBAN", "SETL_CODE": 848, "X_COORD": 174495, "Y_COORD": 636158, "EshkolRashuyot": 420.0 }, "geometry": { "type": "Point", "coordinates": [ 34.729574901315459, 31.817299635736241 ] } },
{ "type": "Feature", "properties": { "OBJECTID": 220, "OBJECTID_1": 220, "HEB_NAME": "דבירה", "ENG_NAME": "DEVIRA", "SETL_CODE": 849, "X_COORD": 183169, "Y_COORD": 591349, "EshkolRashuyot": 620.0 }, "geometry": { "type": "Point", "coordinates": [ 34.82283863840761, 31.413507130416104 ] } },
{ "type": "Feature", "properties": { "OBJECTID": 221, "OBJECTID_1": 221, "HEB_NAME": "אחיטוב", "ENG_NAME": "AHITUV", "SETL_CODE": 850, "X_COORD": 199331, "Y_COORD": 699340, "EshkolRashuyot": null }, "geometry": { "type": "Point", "coordinates": [ 34.990558874118676, 32.387776611797776 ] } },
{ "type": "Feature", "properties": { "OBJECTID": 222, "OBJECTID_1": 222, "HEB_NAME": "ניצני עוז", "ENG_NAME": "NIZZANE OZ", "SETL_CODE": 851, "X_COORD": 200589, "Y_COORD": 690258, "EshkolRashuyot": 410.0 }, "geometry": { "type": "Point", "coordinates": [ 35.004112081769193, 32.30590097576448 ] } },
{ "type": "Feature", "properties": { "OBJECTID": 223, "OBJECTID_1": 223, "HEB_NAME": "גונן", "ENG_NAME": "GONEN", "SETL_CODE": 852, "X_COORD": 260748, "Y_COORD": 781093, "EshkolRashuyot": 211.0 }, "geometry": { "type": "Point", "coordinates": [ 35.646900466553348, 33.124344664101116 ] } },
{ "type": "Feature", "properties": { "OBJECTID": 224, "OBJECTID_1": 224, "HEB_NAME": "גאליה", "ENG_NAME": "GE'ALYA", "SETL_CODE": 853, "X_COORD": 177925, "Y_COORD": 643656, "EshkolRashuyot": null }, "geometry": { "type": "Point", "coordinates": [ 34.765482934400083, 31.885048332646239 ] } },
{ "type": "Feature", "properties": { "OBJECTID": 225, "OBJECTID_1": 225, "HEB_NAME": "רחוב", "ENG_NAME": "REHOV", "SETL_CODE": 854, "X_COORD": 246227, "Y_COORD": 706344, "EshkolRashuyot": 214.0 }, "geometry": { "type": "Point", "coordinates": [ 35.489143567808803, 32.45079753866947 ] } },
{ "type": "Feature", "properties": { "OBJECTID": 226, "OBJECTID_1": 226, "HEB_NAME": "שעלבים", "ENG_NAME": "SHA'ALVIM", "SETL_CODE": 856, "X_COORD": 198493, "Y_COORD": 641934, "EshkolRashuyot": null }, "geometry": { "type": "Point", "coordinates": [ 34.98290282277749, 31.870081771531783 ] } },
{ "type": "Feature", "properties": { "OBJECTID": 227, "OBJECTID_1": 227, "HEB_NAME": "כפר אביב", "ENG_NAME": "KEFAR AVIV", "SETL_CODE": 857, "X_COORD": 173695, "Y_COORD": 637718, "EshkolRashuyot": null }, "geometry": { "type": "Point", "coordinates": [ 34.721053193071768, 31.831337077013703 ] } },
{ "type": "Feature", "properties": { "OBJECTID": 228, "OBJECTID_1": 228, "HEB_NAME": "נווה ירק", "ENG_NAME": "NEWE YARAQ", "SETL_CODE": 858, "X_COORD": 193035, "Y_COORD": 671089, "EshkolRashuyot": 410.0 }, "geometry": { "type": "Point", "coordinates": [ 34.924430499988283, 32.132889093461287 ] } },
{ "type": "Feature", "properties": { "OBJECTID": 229, "OBJECTID_1": 229, "HEB_NAME": "כסלון", "ENG_NAME": "KESALON", "SETL_CODE": 859, "X_COORD": 204761, "Y_COORD": 631277, "EshkolRashuyot": null }, "geometry": { "type": "Point", "coordinates": [ 35.049303210847384, 31.774074504950335 ] } },
{ "type": "Feature", "properties": { "OBJECTID": 230, "OBJECTID_1": 230, "HEB_NAME": "שדה אליעזר", "ENG_NAME": "SEDE ELI'EZER", "SETL_CODE": 861, "X_COORD": 252991, "Y_COORD": 772306, "EshkolRashuyot": 211.0 }, "geometry": { "type": "Point", "coordinates": [ 35.563457219695309, 33.045381732034286 ] } },
{ "type": "Feature", "properties": { "OBJECTID": 231, "OBJECTID_1": 231, "HEB_NAME": "גני יוחנן", "ENG_NAME": "GANNE YOHANAN", "SETL_CODE": 862, "X_COORD": 184803, "Y_COORD": 640642, "EshkolRashuyot": null }, "geometry": { "type": "Point", "coordinates": [ 34.838283152878525, 31.858101874024932 ] } },
{ "type": "Feature", "properties": { "OBJECTID": 232, "OBJECTID_1": 232, "HEB_NAME": "כפר הנגיד", "ENG_NAME": "KEFAR HANAGID", "SETL_CODE": 582, "X_COORD": 176420, "Y_COORD": 643950, "EshkolRashuyot": null }, "geometry": { "type": "Point", "coordinates": [ 34.749553547346075, 31.887642872453039 ] } },
{ "type": "Feature", "properties": { "OBJECTID": 233, "OBJECTID_1": 233, "HEB_NAME": "זיקים", "ENG_NAME": "ZIQIM", "SETL_CODE": 584, "X_COORD": 154673, "Y_COORD": 613235, "EshkolRashuyot": 620.0 }, "geometry": { "type": "Point", "coordinates": [ 34.521744316923609, 31.609635530862903 ] } },
{ "type": "Feature", "properties": { "OBJECTID": 234, "OBJECTID_1": 234, "HEB_NAME": "לביא", "ENG_NAME": "LAVI", "SETL_CODE": 585, "X_COORD": 241710, "Y_COORD": 743663, "EshkolRashuyot": 214.0 }, "geometry": { "type": "Point", "coordinates": [ 35.441993727531035, 32.787405312433471 ] } },
{ "type": "Feature", "properties": { "OBJECTID": 235, "OBJECTID_1": 235, "HEB_NAME": "מגידו", "ENG_NAME": "MEGIDDO", "SETL_CODE": 586, "X_COORD": 217131, "Y_COORD": 720682, "EshkolRashuyot": 213.0 }, "geometry": { "type": "Point", "coordinates": [ 35.179676609340511, 32.580403850901746 ] } },
{ "type": "Feature", "properties": { "OBJECTID": 236, "OBJECTID_1": 236, "HEB_NAME": "סביון*", "ENG_NAME": "SAVYON", "SETL_CODE": 587, "X_COORD": 188686, "Y_COORD": 661557, "EshkolRashuyot": null }, "geometry": { "type": "Point", "coordinates": [ 34.878648893453111, 32.046827885398571 ] } },
{ "type": "Feature", "properties": { "OBJECTID": 237, "OBJECTID_1": 237, "HEB_NAME": "בני ראם", "ENG_NAME": "BENE RE'EM", "SETL_CODE": 588, "X_COORD": 180339, "Y_COORD": 630994, "EshkolRashuyot": 420.0 }, "geometry": { "type": "Point", "coordinates": [ 34.791497125525964, 31.770947701875716 ] } },
{ "type": "Feature", "properties": { "OBJECTID": 238, "OBJECTID_1": 238, "HEB_NAME": "בצת", "ENG_NAME": "BEZET", "SETL_CODE": 589, "X_COORD": 212962, "Y_COORD": 775112, "EshkolRashuyot": 212.0 }, "geometry": { "type": "Point", "coordinates": [ 35.134894417579666, 33.071178141845422 ] } },
{ "type": "Feature", "properties": { "OBJECTID": 239, "OBJECTID_1": 239, "HEB_NAME": "נווה אור", "ENG_NAME": "NEWE UR", "SETL_CODE": 590, "X_COORD": 252204, "Y_COORD": 721670, "EshkolRashuyot": 214.0 }, "geometry": { "type": "Point", "coordinates": [ 35.553242819199468, 32.588830826640987 ] } },
{ "type": "Feature", "properties": { "OBJECTID": 240, "OBJECTID_1": 240, "HEB_NAME": "עשרת", "ENG_NAME": "ASERET", "SETL_CODE": 591, "X_COORD": 176173, "Y_COORD": 636964, "EshkolRashuyot": null }, "geometry": { "type": "Point", "coordinates": [ 34.747256094432068, 31.824635350687341 ] } },
{ "type": "Feature", "properties": { "OBJECTID": 241, "OBJECTID_1": 241, "HEB_NAME": "בני דרום", "ENG_NAME": "BENE DAROM", "SETL_CODE": 592, "X_COORD": 170896, "Y_COORD": 636520, "EshkolRashuyot": 420.0 }, "geometry": { "type": "Point", "coordinates": [ 34.691549213278485, 31.820417699499156 ] } },
{ "type": "Feature", "properties": { "OBJECTID": 242, "OBJECTID_1": 242, "HEB_NAME": "ערוגות", "ENG_NAME": "ARUGOT", "SETL_CODE": 593, "X_COORD": 178514, "Y_COORD": 626927, "EshkolRashuyot": 420.0 }, "geometry": { "type": "Point", "coordinates": [ 34.77240484860102, 31.734206311056937 ] } },
{ "type": "Feature", "properties": { "OBJECTID": 243, "OBJECTID_1": 243, "HEB_NAME": "צפרייה", "ENG_NAME": "ZAFRIYYA", "SETL_CODE": 594, "X_COORD": 186565, "Y_COORD": 656701, "EshkolRashuyot": null }, "geometry": { "type": "Point", "coordinates": [ 34.856348965716435, 32.002975946094146 ] } },
{ "type": "Feature", "properties": { "OBJECTID": 244, "OBJECTID_1": 244, "HEB_NAME": "לוחמי הגיטאות", "ENG_NAME": "LOHAME HAGETA'OT", "SETL_CODE": 595, "X_COORD": 209505, "Y_COORD": 763198, "EshkolRashuyot": 212.0 }, "geometry": { "type": "Point", "coordinates": [ 35.098004661854652, 32.963726857894095 ] } },
{ "type": "Feature", "properties": { "OBJECTID": 245, "OBJECTID_1": 245, "HEB_NAME": "מלכייה", "ENG_NAME": "MALKIYYA", "SETL_CODE": 596, "X_COORD": 248046, "Y_COORD": 778429, "EshkolRashuyot": 211.0 }, "geometry": { "type": "Point", "coordinates": [ 35.510708001765799, 33.100729810925841 ] } },
{ "type": "Feature", "properties": { "OBJECTID": 246, "OBJECTID_1": 246, "HEB_NAME": "פלמחים", "ENG_NAME": "PALMAHIM", "SETL_CODE": 597, "X_COORD": 172346, "Y_COORD": 649060, "EshkolRashuyot": null }, "geometry": { "type": "Point", "coordinates": [ 34.706255420157717, 31.933566465691843 ] } },
{ "type": "Feature", "properties": { "OBJECTID": 247, "OBJECTID_1": 247, "HEB_NAME": "בית קמה", "ENG_NAME": "BET QAMA", "SETL_CODE": 598, "X_COORD": 177312, "Y_COORD": 595255, "EshkolRashuyot": 620.0 }, "geometry": { "type": "Point", "coordinates": [ 34.761073665943456, 31.448531901313856 ] } },
{ "type": "Feature", "properties": { "OBJECTID": 248, "OBJECTID_1": 248, "HEB_NAME": "פרוד", "ENG_NAME": "PAROD", "SETL_CODE": 599, "X_COORD": 240742, "Y_COORD": 759690, "EshkolRashuyot": 211.0 }, "geometry": { "type": "Point", "coordinates": [ 35.432033173828174, 32.931941388936501 ] } },
{ "type": "Feature", "properties": { "OBJECTID": 249, "OBJECTID_1": 249, "HEB_NAME": "נירים", "ENG_NAME": "NIRIM", "SETL_CODE": 602, "X_COORD": 142416, "Y_COORD": 582972, "EshkolRashuyot": 620.0 }, "geometry": { "type": "Point", "coordinates": [ 34.394941751251196, 31.335971881884674 ] } },
{ "type": "Feature", "properties": { "OBJECTID": 250, "OBJECTID_1": 250, "HEB_NAME": "אלקוש", "ENG_NAME": "ELQOSH", "SETL_CODE": 603, "X_COORD": 230611, "Y_COORD": 770913, "EshkolRashuyot": 212.0 }, "geometry": { "type": "Point", "coordinates": [ 35.323848771664984, 33.033279480690254 ] } },
{ "type": "Feature", "properties": { "OBJECTID": 251, "OBJECTID_1": 251, "HEB_NAME": "בית עריף", "ENG_NAME": "BET ARIF", "SETL_CODE": 604, "X_COORD": 193942, "Y_COORD": 655899, "EshkolRashuyot": null }, "geometry": { "type": "Point", "coordinates": [ 34.934440283784461, 31.995927842720807 ] } },
{ "type": "Feature", "properties": { "OBJECTID": 252, "OBJECTID_1": 252, "HEB_NAME": "כפר שמאי", "ENG_NAME": "KEFAR SHAMMAY", "SETL_CODE": 605, "X_COORD": 243089, "Y_COORD": 762447, "EshkolRashuyot": 211.0 }, "geometry": { "type": "Point", "coordinates": [ 35.457200246477406, 32.956746370947087 ] } },
{ "type": "Feature", "properties": { "OBJECTID": 253, "OBJECTID_1": 253, "HEB_NAME": "ערערה", "ENG_NAME": "AR'ARA", "SETL_CODE": 637, "X_COORD": 208687, "Y_COORD": 711744, "EshkolRashuyot": null }, "geometry": { "type": "Point", "coordinates": [ 35.089844324762574, 32.499763448625387 ] } },
{ "type": "Feature", "properties": { "OBJECTID": 254, "OBJECTID_1": 254, "HEB_NAME": "קלנסווה", "ENG_NAME": "QALANSAWE", "SETL_CODE": 638, "X_COORD": 198044, "Y_COORD": 688294, "EshkolRashuyot": 410.0 }, "geometry": { "type": "Point", "coordinates": [ 34.977132278827327, 32.28815181799024 ] } },
{ "type": "Feature", "properties": { "OBJECTID": 255, "OBJECTID_1": 255, "HEB_NAME": "מצר", "ENG_NAME": "MEZER", "SETL_CODE": 648, "X_COORD": 204697, "Y_COORD": 705127, "EshkolRashuyot": null }, "geometry": { "type": "Point", "coordinates": [ 35.047497303344912, 32.44004618518661 ] } },
{ "type": "Feature", "properties": { "OBJECTID": 256, "OBJECTID_1": 256, "HEB_NAME": "מייסר", "ENG_NAME": "MEISER", "SETL_CODE": 649, "X_COORD": 204169, "Y_COORD": 705643, "EshkolRashuyot": null }, "geometry": { "type": "Point", "coordinates": [ 35.041870721559086, 32.44469757139683 ] } },
{ "type": "Feature", "properties": { "OBJECTID": 257, "OBJECTID_1": 257, "HEB_NAME": "אבטין", "ENG_NAME": "IBTIN", "SETL_CODE": 652, "X_COORD": 210922, "Y_COORD": 740771, "EshkolRashuyot": 310.0 }, "geometry": { "type": "Point", "coordinates": [ 35.113368333187175, 32.761522763127473 ] } },
{ "type": "Feature", "properties": { "OBJECTID": 258, "OBJECTID_1": 258, "HEB_NAME": "כפר קרע", "ENG_NAME": "KAFAR QARA", "SETL_CODE": 654, "X_COORD": 205020, "Y_COORD": 712373, "EshkolRashuyot": null }, "geometry": { "type": "Point", "coordinates": [ 35.050819849036678, 32.505391503442098 ] } },
{ "type": "Feature", "properties": { "OBJECTID": 259, "OBJECTID_1": 259, "HEB_NAME": "שייח' דנון", "ENG_NAME": "SHEIKH DANNUN", "SETL_CODE": 658, "X_COORD": 214194, "Y_COORD": 766502, "EshkolRashuyot": 212.0 }, "geometry": { "type": "Point", "coordinates": [ 35.148131291328347, 32.993553709164928 ] } },
{ "type": "Feature", "properties": { "OBJECTID": 260, "OBJECTID_1": 260, "HEB_NAME": "שער אפרים", "ENG_NAME": "SHA'AR EFRAYIM", "SETL_CODE": 661, "X_COORD": 199932, "Y_COORD": 688385, "EshkolRashuyot": 410.0 }, "geometry": { "type": "Point", "coordinates": [ 34.997165096665633, 32.289006929778886 ] } },
{ "type": "Feature", "properties": { "OBJECTID": 261, "OBJECTID_1": 261, "HEB_NAME": "חוסן", "ENG_NAME": "HOSEN", "SETL_CODE": 662, "X_COORD": 228079, "Y_COORD": 766974, "EshkolRashuyot": 212.0 }, "geometry": { "type": "Point", "coordinates": [ 35.296700537031874, 32.997786433144221 ] } },
{ "type": "Feature", "properties": { "OBJECTID": 262, "OBJECTID_1": 262, "HEB_NAME": "טירת יהודה", "ENG_NAME": "TIRAT YEHUDA", "SETL_CODE": 663, "X_COORD": 193884, "Y_COORD": 657873, "EshkolRashuyot": null }, "geometry": { "type": "Point", "coordinates": [ 34.933778910474608, 32.013734176111193 ] } },
{ "type": "Feature", "properties": { "OBJECTID": 263, "OBJECTID_1": 263, "HEB_NAME": "כרם בן זמרה", "ENG_NAME": "KEREM BEN ZIMRA", "SETL_CODE": 664, "X_COORD": 244005, "Y_COORD": 771476, "EshkolRashuyot": 211.0 }, "geometry": { "type": "Point", "coordinates": [ 35.467236378537812, 33.038140057334253 ] } },
{ "type": "Feature", "properties": { "OBJECTID": 264, "OBJECTID_1": 264, "HEB_NAME": "תקומה", "ENG_NAME": "TEQUMA", "SETL_CODE": 665, "X_COORD": 160037, "Y_COORD": 595604, "EshkolRashuyot": 620.0 }, "geometry": { "type": "Point", "coordinates": [ 34.579326023007702, 31.450921609870495 ] } },
{ "type": "Feature", "properties": { "OBJECTID": 265, "OBJECTID_1": 265, "HEB_NAME": "עומר", "ENG_NAME": "OMER", "SETL_CODE": 666, "X_COORD": 185754, "Y_COORD": 575185, "EshkolRashuyot": null }, "geometry": { "type": "Point", "coordinates": [ 34.85056197612019, 31.26780148930985 ] } },
{ "type": "Feature", "properties": { "OBJECTID": 266, "OBJECTID_1": 266, "HEB_NAME": "ברעם", "ENG_NAME": "BAR'AM", "SETL_CODE": 667, "X_COORD": 240911, "Y_COORD": 773670, "EshkolRashuyot": 211.0 }, "geometry": { "type": "Point", "coordinates": [ 35.434166659742779, 33.057983876841675 ] } },
{ "type": "Feature", "properties": { "OBJECTID": 267, "OBJECTID_1": 267, "HEB_NAME": "מפלסים", "ENG_NAME": "MEFALLESIM", "SETL_CODE": 668, "X_COORD": 158364, "Y_COORD": 601282, "EshkolRashuyot": 620.0 }, "geometry": { "type": "Point", "coordinates": [ 34.5613750160949, 31.50204128886665 ] } },
{ "type": "Feature", "properties": { "OBJECTID": 268, "OBJECTID_1": 268, "HEB_NAME": "משמר איילון", "ENG_NAME": "MISHMAR AYYALON", "SETL_CODE": 670, "X_COORD": 194951, "Y_COORD": 642088, "EshkolRashuyot": null }, "geometry": { "type": "Point", "coordinates": [ 34.94547195206583, 31.871406586277892 ] } },
{ "type": "Feature", "properties": { "OBJECTID": 269, "OBJECTID_1": 269, "HEB_NAME": "בית נקופה", "ENG_NAME": "BET NEQOFA", "SETL_CODE": 672, "X_COORD": 212018, "Y_COORD": 634646, "EshkolRashuyot": null }, "geometry": { "type": "Point", "coordinates": [ 35.125886759835396, 31.80453013774039 ] } },
{ "type": "Feature", "properties": { "OBJECTID": 270, "OBJECTID_1": 270, "HEB_NAME": "כפר טרומן", "ENG_NAME": "KEFAR TRUMAN", "SETL_CODE": 673, "X_COORD": 192972, "Y_COORD": 654189, "EshkolRashuyot": null }, "geometry": { "type": "Point", "coordinates": [ 34.924228147616795, 31.980487011200971 ] } },
{ "type": "Feature", "properties": { "OBJECTID": 271, "OBJECTID_1": 271, "HEB_NAME": "לימן", "ENG_NAME": "LIMAN", "SETL_CODE": 674, "X_COORD": 210897, "Y_COORD": 773865, "EshkolRashuyot": 212.0 }, "geometry": { "type": "Point", "coordinates": [ 35.112790410069429, 33.059926711353974 ] } },
{ "type": "Feature", "properties": { "OBJECTID": 272, "OBJECTID_1": 272, "HEB_NAME": "הבונים", "ENG_NAME": "HABONIM", "SETL_CODE": 675, "X_COORD": 193957, "Y_COORD": 726943, "EshkolRashuyot": null }, "geometry": { "type": "Point", "coordinates": [ 34.932692931842304, 32.636572577925541 ] } },
{ "type": "Feature", "properties": { "OBJECTID": 273, "OBJECTID_1": 273, "HEB_NAME": "עין השלושה", "ENG_NAME": "EN HASHELOSHA", "SETL_CODE": 676, "X_COORD": 143060, "Y_COORD": 584687, "EshkolRashuyot": 620.0 }, "geometry": { "type": "Point", "coordinates": [ 34.401573863317026, 31.351473161256347 ] } },
{ "type": "Feature", "properties": { "OBJECTID": 274, "OBJECTID_1": 274, "HEB_NAME": "הסוללים", "ENG_NAME": "HASOLELIM", "SETL_CODE": 677, "X_COORD": 222562, "Y_COORD": 739564, "EshkolRashuyot": 213.0 }, "geometry": { "type": "Point", "coordinates": [ 35.237582524405568, 32.750665449342272 ] } },
{ "type": "Feature", "properties": { "OBJECTID": 275, "OBJECTID_1": 275, "HEB_NAME": "מעגן", "ENG_NAME": "MA'AGAN", "SETL_CODE": 678, "X_COORD": 256572, "Y_COORD": 734747, "EshkolRashuyot": 214.0 }, "geometry": { "type": "Point", "coordinates": [ 35.600285133136083, 32.706609778654752 ] } },
{ "type": "Feature", "properties": { "OBJECTID": 276, "OBJECTID_1": 276, "HEB_NAME": "אביאל", "ENG_NAME": "AVI'EL", "SETL_CODE": 679, "X_COORD": 199615, "Y_COORD": 715338, "EshkolRashuyot": null }, "geometry": { "type": "Point", "coordinates": [ 34.993236517405229, 32.532042057929935 ] } },
{ "type": "Feature", "properties": { "OBJECTID": 277, "OBJECTID_1": 277, "HEB_NAME": "אומץ", "ENG_NAME": "OMEZ", "SETL_CODE": 680, "X_COORD": 199676, "Y_COORD": 697443, "EshkolRashuyot": null }, "geometry": { "type": "Point", "coordinates": [ 34.99426707348016, 32.370676677280372 ] } },
{ "type": "Feature", "properties": { "OBJECTID": 278, "OBJECTID_1": 278, "HEB_NAME": "גבעת שמואל", "ENG_NAME": "GIV'AT SHEMU'EL", "SETL_CODE": 681, "X_COORD": 186022, "Y_COORD": 664899, "EshkolRashuyot": null }, "geometry": { "type": "Point", "coordinates": [ 34.850321857453324, 32.076881944183704 ] } },
{ "type": "Feature", "properties": { "OBJECTID": 279, "OBJECTID_1": 279, "HEB_NAME": "אליקים", "ENG_NAME": "ELYAQIM", "SETL_CODE": 682, "X_COORD": 206587, "Y_COORD": 726427, "EshkolRashuyot": 213.0 }, "geometry": { "type": "Point", "coordinates": [ 35.067298021051926, 32.632140853020012 ] } },
{ "type": "Feature", "properties": { "OBJECTID": 280, "OBJECTID_1": 280, "HEB_NAME": "גבע כרמל", "ENG_NAME": "GEVA  KARMEL", "SETL_CODE": 683, "X_COORD": 196035, "Y_COORD": 729822, "EshkolRashuyot": null }, "geometry": { "type": "Point", "coordinates": [ 34.954770323546747, 32.662579153333027 ] } },
{ "type": "Feature", "properties": { "OBJECTID": 281, "OBJECTID_1": 281, "HEB_NAME": "היוגב", "ENG_NAME": "HAYOGEV", "SETL_CODE": 684, "X_COORD": 219491, "Y_COORD": 724167, "EshkolRashuyot": 213.0 }, "geometry": { "type": "Point", "coordinates": [ 35.2048092061885, 32.61183190236985 ] } },
{ "type": "Feature", "properties": { "OBJECTID": 282, "OBJECTID_1": 282, "HEB_NAME": "בניה", "ENG_NAME": "BENAYA", "SETL_CODE": 685, "X_COORD": 176726, "Y_COORD": 639082, "EshkolRashuyot": 420.0 }, "geometry": { "type": "Point", "coordinates": [ 34.753001906404201, 31.843758058142694 ] } },
{ "type": "Feature", "properties": { "OBJECTID": 283, "OBJECTID_1": 283, "HEB_NAME": "נווה ימין", "ENG_NAME": "NEWE YAMIN", "SETL_CODE": 686, "X_COORD": 194528, "Y_COORD": 675348, "EshkolRashuyot": 410.0 }, "geometry": { "type": "Point", "coordinates": [ 34.940135989540032, 32.171331110421278 ] } },
{ "type": "Feature", "properties": { "OBJECTID": 284, "OBJECTID_1": 284, "HEB_NAME": "עין איילה", "ENG_NAME": "EN AYYALA", "SETL_CODE": 687, "X_COORD": 195216, "Y_COORD": 726123, "EshkolRashuyot": null }, "geometry": { "type": "Point", "coordinates": [ 34.946138607814625, 32.629207306032797 ] } },
{ "type": "Feature", "properties": { "OBJECTID": 285, "OBJECTID_1": 285, "HEB_NAME": "עלמה", "ENG_NAME": "ALMA", "SETL_CODE": 688, "X_COORD": 247048, "Y_COORD": 772930, "EshkolRashuyot": 211.0 }, "geometry": { "type": "Point", "coordinates": [ 35.499856429358445, 33.051172951476907 ] } },
{ "type": "Feature", "properties": { "OBJECTID": 286, "OBJECTID_1": 286, "HEB_NAME": "מגדים", "ENG_NAME": "MEGADIM", "SETL_CODE": 689, "X_COORD": 196457, "Y_COORD": 737271, "EshkolRashuyot": null }, "geometry": { "type": "Point", "coordinates": [ 34.959082508254056, 32.729755442587937 ] } },
{ "type": "Feature", "properties": { "OBJECTID": 287, "OBJECTID_1": 287, "HEB_NAME": "כפר אחים", "ENG_NAME": "KEFAR AHIM", "SETL_CODE": 690, "X_COORD": 177056, "Y_COORD": 628089, "EshkolRashuyot": 420.0 }, "geometry": { "type": "Point", "coordinates": [ 34.75697130724982, 31.744630074085677 ] } },
{ "type": "Feature", "properties": { "OBJECTID": 288, "OBJECTID_1": 288, "HEB_NAME": "שפיר", "ENG_NAME": "SHAFIR", "SETL_CODE": 692, "X_COORD": 174329, "Y_COORD": 622835, "EshkolRashuyot": null }, "geometry": { "type": "Point", "coordinates": [ 34.728437545346878, 31.69715095167593 ] } },
{ "type": "Feature", "properties": { "OBJECTID": 289, "OBJECTID_1": 289, "HEB_NAME": "נתיב הל\"ה", "ENG_NAME": "NETIV HALAMED-HE", "SETL_CODE": 693, "X_COORD": 198453, "Y_COORD": 621779, "EshkolRashuyot": null }, "geometry": { "type": "Point", "coordinates": [ 34.982918818827414, 31.688323207954213 ] } },
{ "type": "Feature", "properties": { "OBJECTID": 290, "OBJECTID_1": 290, "HEB_NAME": "מעגן מיכאל", "ENG_NAME": "MA'AGAN MIKHA'EL", "SETL_CODE": 694, "X_COORD": 192339, "Y_COORD": 718008, "EshkolRashuyot": null }, "geometry": { "type": "Point", "coordinates": [ 34.915717219392647, 32.555963368572527 ] } },
{ "type": "Feature", "properties": { "OBJECTID": 291, "OBJECTID_1": 291, "HEB_NAME": "מגן", "ENG_NAME": "MAGEN", "SETL_CODE": 695, "X_COORD": 145434, "Y_COORD": 578933, "EshkolRashuyot": 620.0 }, "geometry": { "type": "Point", "coordinates": [ 34.426953419728726, 31.299742346663749 ] } },
{ "type": "Feature", "properties": { "OBJECTID": 292, "OBJECTID_1": 292, "HEB_NAME": "כפר חב\"ד", "ENG_NAME": "KEFAR HABAD", "SETL_CODE": 696, "X_COORD": 185973, "Y_COORD": 655287, "EshkolRashuyot": null }, "geometry": { "type": "Point", "coordinates": [ 34.850141993380142, 31.990202859515602 ] } },
{ "type": "Feature", "properties": { "OBJECTID": 293, "OBJECTID_1": 293, "HEB_NAME": "בארותיים", "ENG_NAME": "BE'EROTAYIM", "SETL_CODE": 697, "X_COORD": 198640, "Y_COORD": 691999, "EshkolRashuyot": null }, "geometry": { "type": "Point", "coordinates": [ 34.983375991557672, 32.32157233305977 ] } },
{ "type": "Feature", "properties": { "OBJECTID": 294, "OBJECTID_1": 294, "HEB_NAME": "בורגתה", "ENG_NAME": "BURGETA", "SETL_CODE": 698, "X_COORD": 196685, "Y_COORD": 692391, "EshkolRashuyot": null }, "geometry": { "type": "Point", "coordinates": [ 34.962599423179071, 32.325065739980253 ] } },
{ "type": "Feature", "properties": { "OBJECTID": 295, "OBJECTID_1": 295, "HEB_NAME": "ניר ישראל", "ENG_NAME": "NIR YISRA'EL", "SETL_CODE": 699, "X_COORD": 165606, "Y_COORD": 621789, "EshkolRashuyot": 620.0 }, "geometry": { "type": "Point", "coordinates": [ 34.636486303987013, 31.687334795873117 ] } },
{ "type": "Feature", "properties": { "OBJECTID": 296, "OBJECTID_1": 296, "HEB_NAME": "חצב", "ENG_NAME": "HAZAV", "SETL_CODE": 700, "X_COORD": 178278, "Y_COORD": 632127, "EshkolRashuyot": 420.0 }, "geometry": { "type": "Point", "coordinates": [ 34.769696435885088, 31.781092748306452 ] } },
{ "type": "Feature", "properties": { "OBJECTID": 297, "OBJECTID_1": 297, "HEB_NAME": "ארבל", "ENG_NAME": "ARBEL", "SETL_CODE": 701, "X_COORD": 245646, "Y_COORD": 746464, "EshkolRashuyot": 214.0 }, "geometry": { "type": "Point", "coordinates": [ 35.484092653184177, 32.812574153478529 ] } },
{ "type": "Feature", "properties": { "OBJECTID": 298, "OBJECTID_1": 298, "HEB_NAME": "האון", "ENG_NAME": "HAON", "SETL_CODE": 702, "X_COORD": 258591, "Y_COORD": 736816, "EshkolRashuyot": 214.0 }, "geometry": { "type": "Point", "coordinates": [ 35.621902236255721, 32.725200023030986 ] } },
{ "type": "Feature", "properties": { "OBJECTID": 299, "OBJECTID_1": 299, "HEB_NAME": "גבעת עוז", "ENG_NAME": "GIV'AT OZ", "SETL_CODE": 703, "X_COORD": 218903, "Y_COORD": 717850, "EshkolRashuyot": 213.0 }, "geometry": { "type": "Point", "coordinates": [ 35.19854701646544, 32.554871651726707 ] } },
{ "type": "Feature", "properties": { "OBJECTID": 300, "OBJECTID_1": 300, "HEB_NAME": "נחשונים", "ENG_NAME": "NAHSHONIM", "SETL_CODE": 705, "X_COORD": 195349, "Y_COORD": 663121, "EshkolRashuyot": 410.0 }, "geometry": { "type": "Point", "coordinates": [ 34.949147601268237, 32.061085674192945 ] } },
{ "type": "Feature", "properties": { "OBJECTID": 301, "OBJECTID_1": 301, "HEB_NAME": "גיאה", "ENG_NAME": "GE'A", "SETL_CODE": 706, "X_COORD": 162428, "Y_COORD": 615198, "EshkolRashuyot": 620.0 }, "geometry": { "type": "Point", "coordinates": [ 34.603354375160571, 31.627742774975061 ] } },
{ "type": "Feature", "properties": { "OBJECTID": 302, "OBJECTID_1": 302, "HEB_NAME": "כפר דניאל", "ENG_NAME": "KEFAR DANIYYEL", "SETL_CODE": 707, "X_COORD": 193732, "Y_COORD": 649013, "EshkolRashuyot": null }, "geometry": { "type": "Point", "coordinates": [ 34.932409258449944, 31.933826631629191 ] } },
{ "type": "Feature", "properties": { "OBJECTID": 303, "OBJECTID_1": 303, "HEB_NAME": "עמקה", "ENG_NAME": "AMQA", "SETL_CODE": 708, "X_COORD": 215481, "Y_COORD": 764906, "EshkolRashuyot": 212.0 }, "geometry": { "type": "Point", "coordinates": [ 35.161910177704677, 32.979172545066312 ] } },
{ "type": "Feature", "properties": { "OBJECTID": 304, "OBJECTID_1": 304, "HEB_NAME": "תפרח", "ENG_NAME": "TIFRAH", "SETL_CODE": 709, "X_COORD": 169368, "Y_COORD": 581637, "EshkolRashuyot": 620.0 }, "geometry": { "type": "Point", "coordinates": [ 34.678196468678223, 31.325399436444904 ] } },
{ "type": "Feature", "properties": { "OBJECTID": 305, "OBJECTID_1": 305, "HEB_NAME": "בית זית", "ENG_NAME": "BET ZAYIT", "SETL_CODE": 710, "X_COORD": 215424, "Y_COORD": 632158, "EshkolRashuyot": null }, "geometry": { "type": "Point", "coordinates": [ 35.161865102753076, 31.782106789720434 ] } },
{ "type": "Feature", "properties": { "OBJECTID": 306, "OBJECTID_1": 306, "HEB_NAME": "עזריה", "ENG_NAME": "AZARYA", "SETL_CODE": 711, "X_COORD": 191560, "Y_COORD": 644206, "EshkolRashuyot": null }, "geometry": { "type": "Point", "coordinates": [ 34.909572614645008, 31.890429086603003 ] } },
{ "type": "Feature", "properties": { "OBJECTID": 307, "OBJECTID_1": 307, "HEB_NAME": "בן עמי", "ENG_NAME": "BEN AMMI", "SETL_CODE": 712, "X_COORD": 211900, "Y_COORD": 767835, "EshkolRashuyot": 212.0 }, "geometry": { "type": "Point", "coordinates": [ 35.123581787237839, 33.005564644407237 ] } },
{ "type": "Feature", "properties": { "OBJECTID": 308, "OBJECTID_1": 308, "HEB_NAME": "רעים", "ENG_NAME": "RE'IM", "SETL_CODE": 713, "X_COORD": 148580, "Y_COORD": 588423, "EshkolRashuyot": 620.0 }, "geometry": { "type": "Point", "coordinates": [ 34.459313859653662, 31.385515634288119 ] } },
{ "type": "Feature", "properties": { "OBJECTID": 309, "OBJECTID_1": 309, "HEB_NAME": "ארז", "ENG_NAME": "EREZ", "SETL_CODE": 714, "X_COORD": 158889, "Y_COORD": 607730, "EshkolRashuyot": 620.0 }, "geometry": { "type": "Point", "coordinates": [ 34.566507712486398, 31.560217998151536 ] } },
{ "type": "Feature", "properties": { "OBJECTID": 310, "OBJECTID_1": 310, "HEB_NAME": "להבות חביבה", "ENG_NAME": "LAHAVOT HAVIVA", "SETL_CODE": 715, "X_COORD": 201092, "Y_COORD": 700136, "EshkolRashuyot": null }, "geometry": { "type": "Point", "coordinates": [ 35.009253738759234, 32.394991492556649 ] } },
{ "type": "Feature", "properties": { "OBJECTID": 311, "OBJECTID_1": 311, "HEB_NAME": "אייל", "ENG_NAME": "EYAL", "SETL_CODE": 716, "X_COORD": 198268, "Y_COORD": 679825, "EshkolRashuyot": 410.0 }, "geometry": { "type": "Point", "coordinates": [ 34.97969242808005, 32.211782307494992 ] } },
{ "type": "Feature", "properties": { "OBJECTID": 312, "OBJECTID_1": 312, "HEB_NAME": "חגור", "ENG_NAME": "HAGOR", "SETL_CODE": 717, "X_COORD": 195173, "Y_COORD": 671598, "EshkolRashuyot": 410.0 }, "geometry": { "type": "Point", "coordinates": [ 34.947076024355773, 32.137527691643882 ] } },
{ "type": "Feature", "properties": { "OBJECTID": 313, "OBJECTID_1": 313, "HEB_NAME": "ירחיב", "ENG_NAME": "YARHIV", "SETL_CODE": 718, "X_COORD": 197132, "Y_COORD": 673286, "EshkolRashuyot": 410.0 }, "geometry": { "type": "Point", "coordinates": [ 34.967795354906869, 32.152792896777633 ] } },
{ "type": "Feature", "properties": { "OBJECTID": 314, "OBJECTID_1": 314, "HEB_NAME": "תל קציר", "ENG_NAME": "TEL QAZIR", "SETL_CODE": 719, "X_COORD": 258190, "Y_COORD": 734519, "EshkolRashuyot": 214.0 }, "geometry": { "type": "Point", "coordinates": [ 35.617531529884005, 32.704496163464903 ] } },
{ "type": "Feature", "properties": { "OBJECTID": 315, "OBJECTID_1": 315, "HEB_NAME": "ניר גלים", "ENG_NAME": "NIR GALLIM", "SETL_CODE": 720, "X_COORD": 170003, "Y_COORD": 636940, "EshkolRashuyot": 420.0 }, "geometry": { "type": "Point", "coordinates": [ 34.682090836873648, 31.82417072367317 ] } },
{ "type": "Feature", "properties": { "OBJECTID": 316, "OBJECTID_1": 316, "HEB_NAME": "שדה אילן", "ENG_NAME": "SEDE ILAN", "SETL_CODE": 721, "X_COORD": 239970, "Y_COORD": 739359, "EshkolRashuyot": 214.0 }, "geometry": { "type": "Point", "coordinates": [ 35.423324768575149, 32.748628703621293 ] } },
{ "type": "Feature", "properties": { "OBJECTID": 317, "OBJECTID_1": 317, "HEB_NAME": "מגשימים", "ENG_NAME": "MAGSHIMIM", "SETL_CODE": 722, "X_COORD": 190608, "Y_COORD": 661524, "EshkolRashuyot": 410.0 }, "geometry": { "type": "Point", "coordinates": [ 34.899000261780913, 32.046574148517976 ] } },
{ "type": "Feature", "properties": { "OBJECTID": 318, "OBJECTID_1": 318, "HEB_NAME": "בית הגדי", "ENG_NAME": "BET HAGADDI", "SETL_CODE": 723, "X_COORD": 162600, "Y_COORD": 592751, "EshkolRashuyot": 620.0 }, "geometry": { "type": "Point", "coordinates": [ 34.606453975809487, 31.425318382514984 ] } },
{ "type": "Feature", "properties": { "OBJECTID": 319, "OBJECTID_1": 319, "HEB_NAME": "הודייה", "ENG_NAME": "HODIYYA", "SETL_CODE": 726, "X_COORD": 166007, "Y_COORD": 620410, "EshkolRashuyot": 620.0 }, "geometry": { "type": "Point", "coordinates": [ 34.640794105295313, 31.674923779797155 ] } },
{ "type": "Feature", "properties": { "OBJECTID": 320, "OBJECTID_1": 320, "HEB_NAME": "תלמי יחיאל", "ENG_NAME": "TALME YEHI'EL", "SETL_CODE": 727, "X_COORD": 177614, "Y_COORD": 629043, "EshkolRashuyot": 420.0 }, "geometry": { "type": "Point", "coordinates": [ 34.762815967170582, 31.753261266877892 ] } },
{ "type": "Feature", "properties": { "OBJECTID": 321, "OBJECTID_1": 321, "HEB_NAME": "משמר השבעה", "ENG_NAME": "MISHMAR HASHIV'A", "SETL_CODE": 729, "X_COORD": 183466, "Y_COORD": 657450, "EshkolRashuyot": null }, "geometry": { "type": "Point", "coordinates": [ 34.823524010266546, 32.009629901146951 ] } },
{ "type": "Feature", "properties": { "OBJECTID": 322, "OBJECTID_1": 322, "HEB_NAME": "אליפלט", "ENG_NAME": "ELIFELET", "SETL_CODE": 730, "X_COORD": 251520, "Y_COORD": 761491, "EshkolRashuyot": 211.0 }, "geometry": { "type": "Point", "coordinates": [ 35.547337613477417, 32.947916713725625 ] } },
{ "type": "Feature", "properties": { "OBJECTID": 323, "OBJECTID_1": 323, "HEB_NAME": "מישר", "ENG_NAME": "MESHAR", "SETL_CODE": 731, "X_COORD": 176804, "Y_COORD": 636354, "EshkolRashuyot": null }, "geometry": { "type": "Point", "coordinates": [ 34.75394802576993, 31.819157453310602 ] } },
{ "type": "Feature", "properties": { "OBJECTID": 324, "OBJECTID_1": 324, "HEB_NAME": "משמר הירדן", "ENG_NAME": "MISHMAR HAYARDEN", "SETL_CODE": 732, "X_COORD": 256343, "Y_COORD": 767792, "EshkolRashuyot": 211.0 }, "geometry": { "type": "Point", "coordinates": [ 35.599158598176231, 33.004578443802714 ] } },
{ "type": "Feature", "properties": { "OBJECTID": 325, "OBJECTID_1": 325, "HEB_NAME": "גן יאשיה", "ENG_NAME": "GAN YOSHIYYA", "SETL_CODE": 734, "X_COORD": 199644, "Y_COORD": 695196, "EshkolRashuyot": null }, "geometry": { "type": "Point", "coordinates": [ 34.993969093916249, 32.35041553153151 ] } },
{ "type": "Feature", "properties": { "OBJECTID": 326, "OBJECTID_1": 326, "HEB_NAME": "רמות מאיר", "ENG_NAME": "RAMOT ME'IR", "SETL_CODE": 735, "X_COORD": 186500, "Y_COORD": 642382, "EshkolRashuyot": null }, "geometry": { "type": "Point", "coordinates": [ 34.856148530674972, 31.873844732471902 ] } },
{ "type": "Feature", "properties": { "OBJECTID": 327, "OBJECTID_1": 327, "HEB_NAME": "גילת", "ENG_NAME": "GILAT", "SETL_CODE": 736, "X_COORD": 166879, "Y_COORD": 581935, "EshkolRashuyot": 620.0 }, "geometry": { "type": "Point", "coordinates": [ 34.65203030992668, 31.327979528790024 ] } },
{ "type": "Feature", "properties": { "OBJECTID": 328, "OBJECTID_1": 328, "HEB_NAME": "עולש", "ENG_NAME": "OLESH", "SETL_CODE": 737, "X_COORD": 198858, "Y_COORD": 693177, "EshkolRashuyot": null }, "geometry": { "type": "Point", "coordinates": [ 34.985665783931388, 32.332199093910162 ] } },
{ "type": "Feature", "properties": { "OBJECTID": 329, "OBJECTID_1": 329, "HEB_NAME": "דור", "ENG_NAME": "DOR", "SETL_CODE": 738, "X_COORD": 192918, "Y_COORD": 723729, "EshkolRashuyot": null }, "geometry": { "type": "Point", "coordinates": [ 34.921715882594334, 32.607568622122074 ] } },
{ "type": "Feature", "properties": { "OBJECTID": 330, "OBJECTID_1": 330, "HEB_NAME": "שדה עוזיהו", "ENG_NAME": "SEDE UZZIYYAHU", "SETL_CODE": 739, "X_COORD": 169556, "Y_COORD": 629437, "EshkolRashuyot": 420.0 }, "geometry": { "type": "Point", "coordinates": [ 34.67775560137968, 31.75648928084701 ] } },
{ "type": "Feature", "properties": { "OBJECTID": 331, "OBJECTID_1": 331, "HEB_NAME": "אשתאול", "ENG_NAME": "ESHTA'OL", "SETL_CODE": 740, "X_COORD": 200958, "Y_COORD": 632065, "EshkolRashuyot": null }, "geometry": { "type": "Point", "coordinates": [ 35.0091380570232, 31.781127053960795 ] } },
{ "type": "Feature", "properties": { "OBJECTID": 332, "OBJECTID_1": 332, "HEB_NAME": "שואבה", "ENG_NAME": "SHO'EVA", "SETL_CODE": 741, "X_COORD": 207482, "Y_COORD": 633953, "EshkolRashuyot": null }, "geometry": { "type": "Point", "coordinates": [ 35.077999280750603, 31.798238648912342 ] } },
{ "type": "Feature", "properties": { "OBJECTID": 333, "OBJECTID_1": 333, "HEB_NAME": "מסילת ציון", "ENG_NAME": "MESILLAT ZIYYON", "SETL_CODE": 742, "X_COORD": 201146, "Y_COORD": 634400, "EshkolRashuyot": null }, "geometry": { "type": "Point", "coordinates": [ 35.011080076286696, 31.802185023631598 ] } },
{ "type": "Feature", "properties": { "OBJECTID": 334, "OBJECTID_1": 334, "HEB_NAME": "כפר שמואל", "ENG_NAME": "KEFAR SHEMU'EL", "SETL_CODE": 743, "X_COORD": 193712, "Y_COORD": 644170, "EshkolRashuyot": null }, "geometry": { "type": "Point", "coordinates": [ 34.932326712663127, 31.890154486360153 ] } },
{ "type": "Feature", "properties": { "OBJECTID": 335, "OBJECTID_1": 335, "HEB_NAME": "תלמי יפה", "ENG_NAME": "TALME YAFE", "SETL_CODE": 744, "X_COORD": 163386, "Y_COORD": 614131, "EshkolRashuyot": 620.0 }, "geometry": { "type": "Point", "coordinates": [ 34.613511704031659, 31.618169679815178 ] } },
{ "type": "Feature", "properties": { "OBJECTID": 336, "OBJECTID_1": 336, "HEB_NAME": "גמזו", "ENG_NAME": "GIMZO", "SETL_CODE": 745, "X_COORD": 194548, "Y_COORD": 648344, "EshkolRashuyot": null }, "geometry": { "type": "Point", "coordinates": [ 34.941046987222855, 31.927810932478337 ] } },